tipo,lat,lon,name,address,location
restaurant,40.428732,-3.7020018,Café Comercial,Glorieta de Bilbao 7,Madrid
restaurant,40.4245836,-3.709622,Rey de Tallarines,Plaza del Conde de Toreno 2,Madrid
restaurant,40.4257624,-3.7120848,La Parrilla de Nino,Plaza de Cristino Martos 2,Madrid
restaurant,40.42514,-3.7118533,Delhi,Calle del Duque de Osuna 6,Madrid
restaurant,40.4260327,-3.711541,La Pomarada,Calle del Conde Duque 9999,Madrid
restaurant,40.4252476,-3.6963836,Sexto,Calle de Fernando VI 6,Madrid
restaurant,40.4162327,-3.7088498,Brasa y Leña,Plaza del Comandante Las Morenas 3,Madrid
restaurant,40.4116272,-3.7102277,El Viajero,Plaza de la Cebada 11,Madrid
restaurant,40.412068,-3.7105933,Que trabaje Rita,NO STREET 9999,Madrid
restaurant,40.4128259,-3.7114212,Vanila,NO STREET 9999,Madrid
restaurant,40.4128962,-3.7114087,Naïa,NO STREET 9999,Madrid
restaurant,40.4130139,-3.7113877,El Cosaco,NO STREET 9999,Madrid
restaurant,40.4130894,-3.7117933,El Estragón Taberna,NO STREET 9999,Madrid
restaurant,40.4131593,-3.7117469,Tío Timón,Costanilla de San Andrés 8,Madrid
restaurant,40.4137154,-3.7127335,Taquería del Alamillo,NO STREET 9999,Madrid
restaurant,40.485413,-3.6852544,Casa Ginés,NO STREET 9999,Madrid
restaurant,40.4857882,-3.6926733,Mesón Gallego,NO STREET 9999,Madrid
restaurant,40.4855645,-3.6920333,Queen Burger Gourmet,Calle de San Modesto 34,Madrid
restaurant,40.4862924,-3.6924531,tele-bocata,NO STREET 9999,Madrid
restaurant,40.4843585,-3.6868649,NO NAME,NO STREET 9999,Madrid
restaurant,40.4844368,-3.6870451,NO NAME,NO STREET 9999,Madrid
restaurant,40.485544,-3.6895993,Casa Mouriño,NO STREET 9999,Madrid
restaurant,40.4856113,-3.6897672,Cafetería Jeymon,NO STREET 9999,Madrid
restaurant,40.4850901,-3.6847127,NO NAME,NO STREET 9999,Madrid
restaurant,40.4468248,-3.714308,Taberna la Tortuga,NO STREET 9999,Madrid
restaurant,40.4867692,-3.6892092,Taberna Restaurante Txamizo,NO STREET 9999,Madrid
restaurant,40.4854963,-3.6895029,Restaurante Fereva,NO STREET 9999,Madrid
restaurant,40.4486523,-3.7297735,Cafetería y comidas,NO STREET 9999,Madrid
restaurant,40.4115676,-3.6978097,Fuente de la Fama,NO STREET 9999,Madrid
restaurant,40.4111028,-3.6957181,A Cañada,NO STREET 9999,Madrid
restaurant,40.412427,-3.6963071,Arrocería Gala,NO STREET 9999,Madrid
restaurant,40.4122937,-3.6939658,El Fogón Verde,Calle de la Alameda 4,Madrid
restaurant,40.4134319,-3.6957085,El Rábano,NO STREET 9999,Madrid
restaurant,40.4136237,-3.6960696,Terra Mundi,Calle de Lope de Vega 32,Madrid
restaurant,40.4169233,-3.6966322,Edelweiss,NO STREET 9999,Madrid
restaurant,40.4171806,-3.6965924,El Secreto de Castilla,NO STREET 9999,Madrid
restaurant,40.4173325,-3.6966034,Sagardi,Calle Jovellanos 3,Madrid
restaurant,40.416822,-3.6971908,Vegetariano,NO STREET 9999,Madrid
restaurant,40.4040925,-3.7009208,Uskar,NO STREET 9999,Madrid
restaurant,40.4047549,-3.7014847,A Cañada,NO STREET 9999,Madrid
restaurant,40.4049362,-3.6986721,Valdivieso,NO STREET 9999,Madrid
restaurant,40.4051914,-3.6973199,Hong,NO STREET 9999,Madrid
restaurant,40.4050712,-3.6952969,Restaurante Indio,NO STREET 9999,Madrid
restaurant,40.4154405,-3.7113374,Tapería Mayor,Calle Mayor 76,Madrid
restaurant,40.4152606,-3.7115508,Arcade,Calle Mayor 73,Madrid
restaurant,40.4156552,-3.710208,Cruz Blanca,Calle Mayor 68,Madrid
restaurant,40.4155619,-3.7100123,NO NAME,NO STREET 9999,Madrid
restaurant,40.4153729,-3.7094547,Taste Gallery,NO STREET 9999,Madrid
restaurant,40.4163669,-3.7104348,Taberneros,Calle de Santiago 9,Madrid
restaurant,40.4164826,-3.7106873,Arbonaida,Calle de Santiago 11,Madrid
restaurant,40.4161161,-3.7075072,Grazie Mille,NO STREET 9999,Madrid
restaurant,40.4186369,-3.7090308,Entre suspiro y suspiro,Calle de Caños del Peral 3,Madrid
restaurant,40.4185506,-3.7089327,Ópera Victoria,Calle de Caños del Peral 2,Madrid
restaurant,40.4196027,-3.7077218,Wok King,Calle de las Veneras 9,Madrid
restaurant,40.4186643,-3.7082433,Taberna de los Ángeles,Costanilla de los Ángeles 8,Madrid
restaurant,40.4196449,-3.7070086,Lizarran,Calle Preciados 33,Madrid
restaurant,40.418183,-3.7031236,El Gaucho,Calle de Tetuán 34,Madrid
restaurant,40.419207,-3.7029076,Artemisa,Calle de las Tres Cruces 4,Madrid
restaurant,40.418948,-3.7037389,Takos Al Pastor,Calle Abada 2,Madrid
restaurant,40.4205737,-3.7068314,Ginos,Gran Vía 43,Madrid
restaurant,40.4102862,-3.7008582,Preity Raj,NO STREET 9999,Madrid
restaurant,40.4109653,-3.7004479,A Cañada,Calle del Ave María 17,Madrid
restaurant,40.4111374,-3.700326,Raja Mahal,Calle del Ave María 15,Madrid
restaurant,40.4110886,-3.700589,Moharaj,NO STREET 9999,Madrid
restaurant,40.4108202,-3.7005322,Nap,Calle del Ave María 9999,Madrid
restaurant,40.4107264,-3.7008747,Bombay Palace,NO STREET 9999,Madrid
restaurant,40.4093708,-3.7009194,NO NAME,NO STREET 9999,Madrid
restaurant,40.4106867,-3.6995223,El Aperitivo del Corazón,Calle de los Tres Peces 20,Madrid
restaurant,40.4114924,-3.6994308,O'Barquiño,Calle de la Torrecilla del Leal 3,Madrid
restaurant,40.4117492,-3.700322,La Temeraria,Calle del Ave María 8,Madrid
restaurant,40.4116655,-3.700364,El Dinosaurio,NO STREET 9999,Madrid
restaurant,40.455063,-3.6226906,Gino's,NO STREET 9999,Madrid
restaurant,40.4550377,-3.622496,Wok,NO STREET 9999,Madrid
restaurant,40.4549871,-3.6222587,Vips,NO STREET 9999,Madrid
restaurant,40.4367886,-3.6226101,Como Como Slow Food,Julian Camarillo 47,Madrid
restaurant,40.445038,-3.6411778,Restaurante Pico Pico,NO STREET 9999,Madrid
restaurant,40.4445989,-3.6403865,Asador Rías Bajas,NO STREET 9999,Madrid
restaurant,40.4424437,-3.6384083,El Racó,NO STREET 9999,Madrid
restaurant,40.4423564,-3.6383442,Happiness,NO STREET 9999,Madrid
restaurant,40.4704992,-3.5803968,Comediante,NO STREET 9999,Madrid
restaurant,40.4696609,-3.5839888,La Escondida,NO STREET 9999,Madrid
restaurant,40.4739157,-3.5771564,La Plaza,NO STREET 9999,Madrid
restaurant,40.4723475,-3.5786174,Siena,NO STREET 9999,Madrid
restaurant,40.4710865,-3.5798455,Miravalles,NO STREET 9999,Madrid
restaurant,40.47223,-3.5821536,Al Tran Tran,NO STREET 9999,Madrid
restaurant,40.4382334,-3.6373154,Jota Cinco,NO STREET 9999,Madrid
restaurant,40.438217,-3.6373926,Mamma Juana,NO STREET 9999,Madrid
restaurant,40.4397488,-3.6364268,Grant's,NO STREET 9999,Madrid
restaurant,40.4375703,-3.6370092,Go,NO STREET 9999,Madrid
restaurant,40.443889,-3.6345377,Matsuri,Calle López de Aranda 38,Madrid
restaurant,40.4439935,-3.6344424,Unus,NO STREET 9999,Madrid
restaurant,40.4440493,-3.6343156,Carlos,NO STREET 9999,Madrid
restaurant,40.4441386,-3.6341149,El Ratito,NO STREET 9999,Madrid
restaurant,40.4445466,-3.6346069,Eu Mundo,NO STREET 9999,Madrid
restaurant,40.4448785,-3.635335,Casa Tampico,NO STREET 9999,Madrid
restaurant,40.5200258,-3.7812549,NO NAME,NO STREET 9999,Madrid
restaurant,40.5187667,-3.7754372,La Montaña,NO STREET 9999,Madrid
restaurant,40.5194084,-3.7767025,Mesón del Pardo,NO STREET 4,Madrid
restaurant,40.5059026,-3.6757441,La Pepa,Calle de San Juan de Ortega 68,Madrid
restaurant,40.5338431,-3.626626,La Mafia,Calle de Anabel Segura 11,Madrid
restaurant,40.4605707,-3.6872821,Alfredo's Barbacoa,Calle de Juan Hurtado de Mendoza 11,Madrid
restaurant,40.5060565,-3.6676655,La Taberna Andaluza,NO STREET 9999,Madrid
restaurant,40.4823061,-3.7014682,Los Montes de Galicia,NO STREET 9999,Madrid
restaurant,40.4740954,-3.7054024,Petiscos Galegos,Avenida de El Ferrol 25,Madrid
restaurant,40.4788109,-3.7134141,La Casa de Yu,NO STREET 9999,Madrid
restaurant,40.479773,-3.7085001,VIPS,NO STREET 9999,Madrid
restaurant,40.4793935,-3.7083499,TGI Friday's,NO STREET 9999,Madrid
restaurant,40.5090251,-3.6675001,La Nicoletta,NO STREET 9999,Madrid
restaurant,40.5100394,-3.6673737,Kobe,NO STREET 9999,Madrid
restaurant,40.5182775,-3.8987664,Kyoto,NO STREET 9999,Madrid
restaurant,40.5426589,-3.457506,La Flama,NO STREET 9999,Madrid
restaurant,40.4189239,-3.6890563,La Gamella,NO STREET 9999,Madrid
restaurant,40.3487048,-3.8493533,VIPS,NO STREET 9999,Madrid
restaurant,40.4958129,-3.6755645,El Rincón de las Tablas,NO STREET 9999,Madrid
restaurant,40.4512504,-3.5813898,Bar-Restaurante La Parada,NO STREET 9999,Madrid
restaurant,40.4512553,-3.5815503,Bar los Arcos,NO STREET 9999,Madrid
restaurant,40.4829998,-3.6940691,El Rosario,NO STREET 9999,Madrid
restaurant,40.4833027,-3.6958009,El Escondite Jamonal,NO STREET 9999,Madrid
restaurant,40.5302584,-3.6384537,Goiko Grill,NO STREET 9999,Madrid
restaurant,40.5059739,-3.6572587,El Oso,NO STREET 9999,Madrid
restaurant,40.3167699,-3.7328316,Las Ventas de Diego de Velázquez,Calle Ramón Rubial 6,Madrid
restaurant,40.5045383,-3.6748903,Ôven,NO STREET 9999,Madrid
restaurant,40.5059631,-3.6746957,La Lola,NO STREET 9999,Madrid
restaurant,40.4269232,-3.6894651,La Nicoletta,Paseo de la Castellana 4,Madrid
restaurant,40.504532,-3.6855922,El Barracón,Calle de Nuestra Señora de Valverde 191,Madrid
restaurant,40.4968493,-3.6665137,VIPS,NO STREET 9999,Madrid
restaurant,40.4969066,-3.6663936,Gino's,NO STREET 9999,Madrid
restaurant,40.4828907,-3.667816,Cafetería Globcafé,NO STREET 9999,Madrid
restaurant,40.4825647,-3.6705259,La Fragua Del Pinar,Calle de Caleruega 9999,Madrid
restaurant,40.4817015,-3.6659151,Ni Hao,Calle de Arturo Soria 335,Madrid
restaurant,40.4862506,-3.6655135,Restaurante La Tagliatela,Avenida de Manoteras 40,Madrid
restaurant,40.4230858,-3.6935468,La Castafiore,NO STREET 9999,Madrid
restaurant,40.4458464,-3.4631402,Todo Rico,NO STREET 9999,Madrid
restaurant,40.4708871,-3.583035,Finca Lucero Celebraciones,NO STREET 9999,Madrid
restaurant,40.4705945,-3.582929,Finca Lucero,NO STREET 9999,Madrid
restaurant,40.4708744,-3.5826133,El Porche,NO STREET 9999,Madrid
restaurant,40.4159664,-3.710711,Can Punyetes,NO STREET 9999,Madrid
restaurant,40.5322395,-3.6443392,Orale Compadre,Carretera de Fuencarral 1,Madrid
restaurant,40.4375239,-3.7931761,La Cumbre,NO STREET 9999,Madrid
restaurant,40.4164723,-3.6717472,Bar Restaurante El Paleto,Calle del Alcalde Sáinz de Baranda 50,Madrid
restaurant,40.4410287,-3.656597,Magaly,NO STREET 9999,Madrid
restaurant,40.4415091,-3.663289,L'Andecha,NO STREET 9999,Madrid
restaurant,40.4218419,-3.8408774,Restaurante Monte Alina,NO STREET 9999,Madrid
restaurant,40.4366702,-3.6419218,Miguelón,NO STREET 9999,Madrid
restaurant,40.4367695,-3.6437704,Mesón Tinajas,NO STREET 9999,Madrid
restaurant,40.4366606,-3.6436812,Los Parros,NO STREET 9999,Madrid
restaurant,40.4376751,-3.6443448,El Cafetín del Barrio,NO STREET 9999,Madrid
restaurant,40.4226068,-3.6932565,Sake Dining Himawari,NO STREET 9999,Madrid
restaurant,40.4304667,-3.6834992,Vips,NO STREET 9999,Madrid
restaurant,40.4300331,-3.8101422,Barbacoa Koreana,NO STREET 9999,Madrid
restaurant,40.438892,-3.6632499,Bruselas,NO STREET 9999,Madrid
restaurant,40.4605477,-3.6868119,El olvido,NO STREET 9999,Madrid
restaurant,40.4317789,-3.702372,Trattoria Limbara,Calle de Olid 6,Madrid
restaurant,40.4952889,-3.8776121,Erazo,NO STREET 9999,Madrid
restaurant,40.4127339,-3.7017235,Casa Patas,NO STREET 9999,Madrid
restaurant,40.4184768,-3.8308025,Restaurante Córdoba,NO STREET 9999,Madrid
restaurant,40.4551315,-3.6705485,Casa de Córdoba,NO STREET 9999,Madrid
restaurant,40.4526225,-3.7004621,Naomí,NO STREET 9999,Madrid
restaurant,40.492169,-3.8779408,Caserola,NO STREET 9999,Madrid
restaurant,40.4521239,-3.4723221,Nueva Estrella,NO STREET 9999,Madrid
restaurant,40.4564814,-3.475001,Nará,NO STREET 9999,Madrid
restaurant,40.5091194,-3.6926415,La Barquita,NO STREET 9999,Madrid
restaurant,40.5043246,-3.7069933,El Peregrino,Avenida del Monasterio de El Escorial 24,Madrid
restaurant,40.5261547,-3.655565,El Pilar,NO STREET 9999,Madrid
restaurant,40.5262446,-3.6554468,El Guerrero,NO STREET 9999,Madrid
restaurant,40.5265044,-3.6551179,El Aprendiz de S.,NO STREET 9999,Madrid
restaurant,40.4548553,-3.67212,Asador Lekeitio,NO STREET 9999,Madrid
restaurant,40.4457819,-3.6855307,Mayte Commodore,NO STREET 9999,Madrid
restaurant,40.5113157,-3.6711103,Royal Thai,NO STREET 9999,Madrid
restaurant,40.4264788,-3.70103,Ninja Ramen,Calle de Barceló 1,Madrid
restaurant,40.4548737,-3.8743421,VIPS,NO STREET 9999,Madrid
restaurant,40.4549153,-3.8741978,Gino's,NO STREET 9999,Madrid
restaurant,40.4052724,-3.5179956,Palacio del Negralejo,NO STREET 9999,Madrid
restaurant,40.2906256,-3.7585722,La Taberna de Pernales,NO STREET 9999,Madrid
restaurant,40.4791886,-3.5813703,Ría del Sella,NO STREET 9999,Madrid
restaurant,40.4452944,-3.4839478,Asturias III,NO STREET 9999,Madrid
restaurant,40.3478745,-3.6938322,Gainza,NO STREET 9999,Madrid
restaurant,40.3492857,-3.6997727,Peña Francia,"Alcocer, 23 9999",Madrid
restaurant,40.348488,-3.7018541,El Asador de Enrique,NO STREET 9999,Madrid
restaurant,40.4511971,-3.5833598,Restaurante Los Amigos,NO STREET 9999,Madrid
restaurant,40.4514584,-3.5818492,Restaurante Casa Luis,NO STREET 9999,Madrid
restaurant,40.4828587,-3.6704199,Pepe's Mesón Restaurante,NO STREET 9999,Madrid
restaurant,40.4158435,-3.702398,La Negra Tomasa,NO STREET 9999,Madrid
restaurant,40.4753341,-3.8720987,Mood - Grupo Vips,NO STREET 9999,Madrid
restaurant,40.4833104,-3.6676942,La Parrilla Del Pinar,Calle de Caleruega 85,Madrid
restaurant,40.4472205,-3.7030843,NO NAME,NO STREET 9999,Madrid
restaurant,40.5269009,-3.6509007,El mercado de Alcobendas,NO STREET 9999,Madrid
restaurant,40.4815783,-3.396781,VIPS,NO STREET 9999,Madrid
restaurant,40.4818007,-3.3961612,Gino's,NO STREET 9999,Madrid
restaurant,40.4473368,-3.4808456,WOK Parrilla,NO STREET 9999,Madrid
restaurant,40.3548451,-3.6995041,Gallardo,NO STREET 9999,Madrid
restaurant,40.3543029,-3.6986993,Casa Conel,NO STREET 9999,Madrid
restaurant,40.3506214,-3.7044437,Renato,NO STREET 9999,Madrid
restaurant,40.4055876,-3.8881823,Nuevo Mundo,NO STREET 9999,Madrid
restaurant,40.4050274,-3.8954814,Seng,NO STREET 9999,Madrid
restaurant,40.4163433,-3.7056737,Museo del Jamón,NO STREET 9999,Madrid
restaurant,40.4141745,-3.707981,Botín,Calle de Cuchilleros 17,Madrid
restaurant,40.4144651,-3.7079513,La Taberna de la Daniela,Calle de Cuchilleros 9,Madrid
restaurant,40.4148583,-3.7081461,Las Cuevas de Luis Candelas,Calle de los Cuchilleros 1,Madrid
restaurant,40.4595156,-3.4636555,Don José,Avenida de la Constitución 173,Madrid
restaurant,40.5163,-3.8985666,Kilómetros de pizza,NO STREET 9999,Madrid
restaurant,40.4850021,-3.3899962,Quemada,NO STREET 9999,Madrid
restaurant,40.4470868,-3.4610246,Asturias II,NO STREET 9999,Madrid
restaurant,40.4616328,-3.4587143,Chacabuco,Calle Londres 66,Madrid
restaurant,40.4514157,-3.4582738,Los Amigos,NO STREET 9999,Madrid
restaurant,40.4495184,-3.4613573,El Charro,NO STREET 9999,Madrid
restaurant,40.4496912,-3.4555966,El Caserón,Calle del Hierro 73,Madrid
restaurant,40.4522434,-3.4665481,New Huapango,NO STREET 9999,Madrid
restaurant,40.4522123,-3.4667253,El Reclamo,NO STREET 9999,Madrid
restaurant,40.4326439,-3.7041368,Erre que Erre,Calle de Fuencarral 145,Madrid
restaurant,40.4349308,-3.7133349,Nájera,Calle de Guzmán el Bueno 55,Madrid
restaurant,40.4205502,-3.6783029,Bar Restaurante Emaus,Calle del Doctor Castelo 9,Madrid
restaurant,40.4514599,-3.678433,Fass,NO STREET 9999,Madrid
restaurant,40.4511924,-3.6769244,Rocky,NO STREET 9999,Madrid
restaurant,40.4512149,-3.6772063,La Tragantía,Calle del Príncipe de Vergara 210,Madrid
restaurant,40.4493577,-3.6775549,La Ancha,NO STREET 9999,Madrid
restaurant,40.5087682,-3.667127,La Vaca Picada,NO STREET 9999,Madrid
restaurant,40.5077141,-3.667902,Kilómetros de pizza,Calle de Palas de Rey 36,Madrid
restaurant,40.4233171,-3.702338,NO NAME,Calle del Barco 45,Madrid
restaurant,40.4696892,-3.5857412,MeatLand,NO STREET 9999,Madrid
restaurant,40.4697035,-3.5875248,El Liberal,NO STREET 9999,Madrid
restaurant,40.4701097,-3.5833353,La Estrella de Oriente,NO STREET 9999,Madrid
restaurant,40.4724643,-3.6506245,Lobato,NO STREET 9999,Madrid
restaurant,40.462182,-3.6701079,Popa,Calle de Santa María Magdalena 14,Madrid
restaurant,40.5111716,-3.6714025,La Mano de Pablo,NO STREET 9999,Madrid
restaurant,40.5119108,-3.6702707,Beefcious,Paseo de la Tierra de Melide 42,Madrid
restaurant,40.5115941,-3.6696293,La Mezza,NO STREET 9999,Madrid
restaurant,40.5289203,-3.6935078,El Mesón de Fuencarral,NO STREET 9999,Madrid
restaurant,40.4861319,-3.6660539,100 Montaditos,Avenida de Manoteras 40,Madrid
restaurant,40.4864162,-3.6662334,Foster's Hollywood,Avenida de Manoteras 40,Madrid
restaurant,40.4882786,-3.6887416,NO NAME,NO STREET 9999,Madrid
restaurant,40.4347469,-3.6682597,Los Montes de Galicia,NO STREET 9999,Madrid
restaurant,40.5081459,-3.6685366,La barra de Pelotari,Calle de Palas de Rey 38,Madrid
restaurant,40.5314452,-3.4825884,El Timón,NO STREET 9999,Madrid
restaurant,40.5309852,-3.4822185,Restaurante Ajalvir,NO STREET 9999,Madrid
restaurant,40.410113,-3.8811275,De Brasa y Puchero,NO STREET 9999,Madrid
restaurant,40.40952,-3.8802177,El Rincón del Bierzo,NO STREET 9999,Madrid
restaurant,40.4241504,-3.7249779,El Vergel,Paseo de la Florida 53,Madrid
restaurant,40.4232064,-3.7231611,El Urogallo,Paseo de la Florida 16,Madrid
restaurant,40.415621,-3.6989812,El Inti de Oro,NO STREET 9999,Madrid
restaurant,40.4164715,-3.6991796,El Subastero de Málaga,NO STREET 9999,Madrid
restaurant,40.4166035,-3.7010637,Restaurante La Catedral,Carrera de San Jerónimo 16,Madrid
restaurant,40.4160137,-3.6989734,Artemisa,NO STREET 9999,Madrid
restaurant,40.4151898,-3.6992792,El Tronco,Calle de Manuel Fernández y González 15,Madrid
restaurant,40.4095795,-3.7023086,Anarkoli,Calle de Lavapiés 46,Madrid
restaurant,40.4081199,-3.6980857,Achuri,NO STREET 9999,Madrid
restaurant,40.4144723,-3.7002686,Miau,NO STREET 9999,Madrid
restaurant,40.4089551,-3.6996903,La Buga del Lobo,Calle de Argumosa 11,Madrid
restaurant,40.4002198,-3.7494203,Yin He,NO STREET 9999,Madrid
restaurant,40.4011609,-3.7518806,El Pinar,NO STREET 9999,Madrid
restaurant,40.4005868,-3.7548689,El Mercado de Montiz,Calle de Sepúlveda 216,Madrid
restaurant,40.4247359,-3.7157793,La Malquerida,Calle de Ferraz 20,Madrid
restaurant,40.4251064,-3.7138463,Cáscaras,NO STREET 9999,Madrid
restaurant,40.4251996,-3.7143276,New Bistró,NO STREET 9999,Madrid
restaurant,40.4241644,-3.7132366,L'Art Créperie,Calle de Martín de los Heros 9999,Madrid
restaurant,40.413651,-3.7247707,Sabores patagónicos,Glorieta del Puente de Segovia 1,Madrid
restaurant,40.4136377,-3.7243418,La Fogata,NO STREET 9999,Madrid
restaurant,40.4205148,-3.7209324,Horno Santa María,NO STREET 9999,Madrid
restaurant,40.4206062,-3.7209429,Florida Norte,NO STREET 9999,Madrid
restaurant,40.4218307,-3.7136481,Duduá Palacio,Cuesta de San Vicente 2,Madrid
restaurant,40.4533088,-3.4734957,Noor,Carretera de Loeches 32,Madrid
restaurant,40.4529285,-3.4730245,Buitre,NO STREET 9999,Madrid
restaurant,40.4524153,-3.4725875,El Coto,NO STREET 9999,Madrid
restaurant,40.4512449,-3.4730235,America's Burger & Coffee,NO STREET 9999,Madrid
restaurant,40.4811517,-3.6630561,Epoca de Esteban,NO STREET 9999,Madrid
restaurant,40.5031735,-3.4799438,La Romería,NO STREET 9999,Madrid
restaurant,40.461507,-3.5917798,Il Duomo Di Firence,NO STREET 9999,Madrid
restaurant,40.4649008,-3.5867715,Restaurante Bar Merendero Madrid,NO STREET 9999,Madrid
restaurant,40.4358615,-3.6723777,Sagar,Calle de Alonso de Heredia 22,Madrid
restaurant,40.4515032,-3.4720662,Mesón Los Charros,NO STREET 9999,Madrid
restaurant,40.4595155,-3.692679,Sumo,Calle de Sor Ángela de la Cruz 8,Madrid
restaurant,40.4086291,-3.8802351,Il Portone,Carretera de Majadahonda 44,Madrid
restaurant,40.4060991,-3.6981652,"Restaurante ""El Cartel""",NO STREET 9999,Madrid
restaurant,40.4062869,-3.4249905,Complejo Cervantes,NO STREET 9999,Madrid
restaurant,40.4829415,-3.6710764,Sake,NO STREET 9999,Madrid
restaurant,40.43983,-3.7292158,Bokado,Avenida Juan de Herrera 2,Madrid
restaurant,40.3034009,-3.841502,NO NAME,NO STREET 9999,Madrid
restaurant,40.4114722,-3.7183105,Sushicome,Ronda de Segovia 2,Madrid
restaurant,40.3818514,-3.6325917,Cervecería-Cafetería La Villa,Calle del Cocherón de la Villa 3,Madrid
restaurant,40.385965,-3.73786,NO NAME,NO STREET 9999,Madrid
restaurant,40.386672,-3.7398661,La Bámbola,NO STREET 9999,Madrid
restaurant,40.3853158,-3.7372966,El Bloque de Ávila,NO STREET 9999,Madrid
restaurant,40.3867493,-3.7397873,Parrilla Santa Cruz,NO STREET 9999,Madrid
restaurant,40.3858425,-3.7398683,El Secreto de Dora,NO STREET 9999,Madrid
restaurant,40.4508807,-3.470851,La Ruta del Pescador,Carretera de Loeches 27,Madrid
restaurant,40.5110892,-3.6692687,Casa Corrochano,NO STREET 9999,Madrid
restaurant,40.481014,-3.6658193,El Rincón del Pinar,Calle de Arturo Soria 334,Madrid
restaurant,40.4872627,-3.6647503,Delisco,NO STREET 9999,Madrid
restaurant,40.4521123,-3.6676676,Casa Antonio Cortijo De Camas‎,Avenida de Alfonso XIII 37,Madrid
restaurant,40.4485857,-3.6669634,Gran Vuelo,NO STREET 9999,Madrid
restaurant,40.4456149,-3.6684007,VIPS,NO STREET 9999,Madrid
restaurant,40.4469445,-3.6667624,Fragola,NO STREET 9999,Madrid
restaurant,40.415143,-3.6992261,El Lacón,Calle de Manuel Fernández y González 8,Madrid
restaurant,40.4160304,-3.6987327,Hylogui,Calle de Ventura de la Vega 3,Madrid
restaurant,40.4784167,-3.3714581,Restaurant Bar Guiñol,NO STREET 9999,Madrid
restaurant,40.479323,-3.3704414,Fogon de amos,NO STREET 9999,Madrid
restaurant,40.4250441,-3.6540389,La Fornia,NO STREET 9999,Madrid
restaurant,40.4236154,-3.6795111,Vai-Vén,Calle de Jorge Juan 55,Madrid
restaurant,40.415043,-3.7065602,Los Galayos,Calle Botoneras 5,Madrid
restaurant,40.403137,-3.7378917,Cuña Verde,NO STREET 9999,Madrid
restaurant,40.457778,-3.4751662,Asiático Yin,NO STREET 9999,Madrid
restaurant,40.3982016,-3.4876035,Totem,NO STREET 9999,Madrid
restaurant,40.3891152,-3.4840415,Lisar,NO STREET 9999,Madrid
restaurant,40.3887557,-3.4840415,El Cazador,NO STREET 9999,Madrid
restaurant,40.3866555,-3.4888802,3R,NO STREET 9999,Madrid
restaurant,40.4767397,-3.4793501,Ribs,NO STREET 9999,Madrid
restaurant,40.4765225,-3.4788477,Foster's Hollywood,NO STREET 9999,Madrid
restaurant,40.443237,-3.4617837,Rías Baixas,NO STREET 9999,Madrid
restaurant,40.4429991,-3.4616202,Las Conchas,NO STREET 9999,Madrid
restaurant,40.4596382,-3.6945201,Vips,Calle de Orense 79,Madrid
restaurant,40.4516488,-3.4733883,The Irish Abbey,NO STREET 9999,Madrid
restaurant,40.4189929,-3.7077919,Musashi,Calle de las Conchas 4,Madrid
restaurant,40.4189106,-3.7074573,Casa Parrondo,Calle de los Trujillos 9,Madrid
restaurant,40.4197145,-3.7088476,A Coruña,Cuesta de Santo Domingo 9999,Madrid
restaurant,40.4229516,-3.7087534,Da Nicola,Plaza de los Mostenses 11,Madrid
restaurant,40.4568582,-3.4740142,Camino Real,Avenida de la Constitución 86,Madrid
restaurant,40.4468588,-3.4606746,El Bosque,NO STREET 9999,Madrid
restaurant,40.4442561,-3.4602221,Asturias I,NO STREET 9999,Madrid
restaurant,40.4770106,-3.4787568,TGB The Good Burger,NO STREET 9999,Madrid
restaurant,40.4656814,-3.5871044,Os Ferreiros,NO STREET 9999,Madrid
restaurant,40.324248,-3.6515286,NO NAME,NO STREET 9999,Madrid
restaurant,40.4576929,-3.471993,Yang,NO STREET 9999,Madrid
restaurant,40.408608,-3.6928819,El Brillante,Plaza del Emperador Carlos V 8,Madrid
restaurant,40.4514073,-3.4722497,Reverxo Gastrobar,NO STREET 9999,Madrid
restaurant,40.3718936,-3.6184746,Fuente de Canalejas,NO STREET 9999,Madrid
restaurant,40.4003889,-3.686867,Trujillo,NO STREET 9999,Madrid
restaurant,40.4004467,-3.6879754,Ginos,NO STREET 9999,Madrid
restaurant,40.4006752,-3.6882135,De Celso,NO STREET 9999,Madrid
restaurant,40.4012913,-3.6881593,Prudencio,NO STREET 9999,Madrid
restaurant,40.4010421,-3.6879258,NO NAME,NO STREET 9999,Madrid
restaurant,40.4014836,-3.6883969,Restaurante Chino,NO STREET 9999,Madrid
restaurant,40.3503257,-3.8475015,TGI Friday's,NO STREET 9999,Madrid
restaurant,40.3501987,-3.8474245,La Tagliatella,NO STREET 9999,Madrid
restaurant,40.3490196,-3.8474329,WOK Dinastía,NO STREET 9999,Madrid
restaurant,40.3487702,-3.8492246,Ginos,NO STREET 9999,Madrid
restaurant,40.4461758,-3.6955109,La Meka de la Baguette,NO STREET 9999,Madrid
restaurant,40.4501254,-3.6879424,VIPS,NO STREET 9999,Madrid
restaurant,40.4289273,-3.7096019,Tiradito,Calle del Conde Duque 13,Madrid
restaurant,40.401209,-3.6868605,NO NAME,NO STREET 9999,Madrid
restaurant,40.4533377,-3.4667562,Miguel Ángel,NO STREET 9999,Madrid
restaurant,40.4525044,-3.4664416,Zampa & Calla,NO STREET 9999,Madrid
restaurant,40.4527766,-3.4665442,Los jardines,NO STREET 9999,Madrid
restaurant,40.4632195,-3.6882395,Restaurante Rast,Calle de Félix Boix 6,Madrid
restaurant,40.4434725,-3.4727271,Asador Poli's,NO STREET 9999,Madrid
restaurant,40.3965239,-3.664788,Los Mariscos,Calle de Nuestra Señora de las Mercedes 5,Madrid
restaurant,40.4897321,-3.757158,El Jardín de Somontes,"Carretera Madrid-El Pardo (M-605) KM 3,3 9999",Madrid
restaurant,40.2930933,-3.7984136,Restaurante Chino El Jardín,NO STREET 9999,Madrid
restaurant,40.2852236,-3.8024722,Restaurante chino,NO STREET 9999,Madrid
restaurant,40.2769435,-3.8017972,Restaurante Chino Guan Dong City,NO STREET 9999,Madrid
restaurant,40.4458239,-3.8017917,El barco de Aparicio,NO STREET 9999,Madrid
restaurant,40.4430901,-3.7050277,Ecocentro,Calle de Esquilache 2-12,Madrid
restaurant,40.2947866,-3.796114,El Maisen,Calle Huesca 5,Madrid
restaurant,40.3402589,-3.3766724,El Descanso Casa Pedro,Carretera de Loeches 9999,Madrid
restaurant,40.4285807,-3.6944749,Almagro,NO STREET 9999,Madrid
restaurant,40.4270827,-3.6949918,Foster's Hollywood,NO STREET 9999,Madrid
restaurant,40.3864424,-3.7154531,O'Freixo,NO STREET 9999,Madrid
restaurant,40.4103182,-3.7076364,Malacatín,Calle de la Ruda 5,Madrid
restaurant,40.41364,-3.7078009,La Cueva de La Tina,Calle Tintoreros 4,Madrid
restaurant,40.4106324,-3.7059609,La Encomienda,Calle de la Encomienda 19,Madrid
restaurant,40.4109033,-3.707633,Carol House,Calle de las Maldonadas 4,Madrid
restaurant,40.4157405,-3.7017617,La Casa del Abuelo,Calle de la Victoria 12,Madrid
restaurant,40.4129955,-3.708661,La Cava de Illán,Calle de la Cava Baja 16,Madrid
restaurant,40.4111122,-3.7048589,Taberna Antonio Sánchez,Calle del Mesón de Paredes 13,Madrid
restaurant,40.4432872,-3.5833803,La Trattoria,NO STREET 9999,Madrid
restaurant,40.4430913,-3.5860616,Sushi Wok,Calle de Deyanira 55,Madrid
restaurant,40.4398835,-3.6233116,El Rodizio,NO STREET 4,Madrid
restaurant,40.454348,-3.6221229,Orgaz,NO STREET 9999,Madrid
restaurant,40.4739344,-3.8687919,El Cortijo,NO STREET 9999,Madrid
restaurant,40.4614356,-3.4401339,El Secreto del Soto,NO STREET 9999,Madrid
restaurant,40.4463698,-3.7115884,Rodilla,NO STREET 9999,Madrid
restaurant,40.5334821,-3.4835282,El Castillo,NO STREET 9999,Madrid
restaurant,40.4147794,-3.698653,Lamucca de Prado,Calle del Prado 16,Madrid
restaurant,40.3971654,-3.6829658,Tedeum,NO STREET 9999,Madrid
restaurant,40.3981459,-3.6857821,NO NAME,NO STREET 9999,Madrid
restaurant,40.4303623,-3.6644162,Jarritus,NO STREET 9999,Madrid
restaurant,40.4302465,-3.6639027,Vips,Calle de Alcalá 200,Madrid
restaurant,40.424182,-3.701688,con-a-che,Plaza de San Ildefonso 9999,Madrid
restaurant,40.4244673,-3.7021898,The Good Burger,Corredera Alta de San Pablo 1,Madrid
restaurant,40.4615044,-3.458997,Chacabuco (Reparto a Domicilio),Calle del Juncal 3,Madrid
restaurant,40.4290921,-3.7215974,Noniná,Paseo del Pintor Rosales 48,Madrid
restaurant,40.4339035,-3.6808655,Cazorla,Calle de Castelló 99,Madrid
restaurant,40.458493,-3.8616389,DeMaría,NO STREET 9999,Madrid
restaurant,40.4206813,-3.7111998,Restaurante El Buey,Plaza de la Marina Española 1,Madrid
restaurant,40.4198376,-3.7105593,El Mollete,Calle de la Bola 4,Madrid
restaurant,40.4262353,-3.6937066,Triángulo,NO STREET 9999,Madrid
restaurant,40.4263016,-3.6927018,NO NAME,Calle de Génova 9999,Madrid
restaurant,40.4262427,-3.6925087,Fit Food,NO STREET 9999,Madrid
restaurant,40.4264901,-3.6930277,Delina's,NO STREET 9999,Madrid
restaurant,40.4259972,-3.6920004,Vips,Calle de Génova 27,Madrid
restaurant,40.4272055,-3.6944365,Lizarrán,NO STREET 9999,Madrid
restaurant,40.4267037,-3.6934761,Tony Roma's,NO STREET 9999,Madrid
restaurant,40.4261281,-3.6922712,Wagamama,Calle de Génova 27,Madrid
restaurant,40.4263507,-3.6928049,Sushi Shop,NO STREET 9999,Madrid
restaurant,40.4264335,-3.6929091,La fábrica,NO STREET 9999,Madrid
restaurant,40.4271017,-3.6942226,Plaza 66,NO STREET 9999,Madrid
restaurant,40.4265389,-3.6931302,BICE,NO STREET 9999,Madrid
restaurant,40.4260662,-3.6939824,La casa de Manolo,NO STREET 9999,Madrid
restaurant,40.4266136,-3.6962385,100 Montaditos,NO STREET 9999,Madrid
restaurant,40.4268372,-3.6944765,Mallorca,NO STREET 9999,Madrid
restaurant,40.4262381,-3.6962852,Da Gavino,Calle de Santa Teresa 1,Madrid
restaurant,40.426637,-3.6955608,Lady Madonna,NO STREET 9999,Madrid
restaurant,40.4261592,-3.6964188,Bocacalle,Calle de Santa Teresa 2,Madrid
restaurant,40.4262822,-3.6936887,Época,NO STREET 9999,Madrid
restaurant,40.4267047,-3.6961684,Paris Avenue,Plaza de Santa Bárbara 9,Madrid
restaurant,40.4256413,-3.6957089,Nuevo Horno de Santa Teresa,Calle de Santa Teresa 8,Madrid
restaurant,40.4253941,-3.6919785,Peyote San,Calle de Génova 28,Madrid
restaurant,40.4261102,-3.6963181,Meat,Calle de Santa Teresa 4,Madrid
restaurant,40.425659,-3.6947144,Calicanto,Calle de Argensola 15,Madrid
restaurant,40.4243592,-3.6951299,Toto y Pepino,NO STREET 9999,Madrid
restaurant,40.4244609,-3.6952426,Défilé café,NO STREET 9999,Madrid
restaurant,40.4250697,-3.6951729,La tasca suprema,Calle de Argensola 7,Madrid
restaurant,40.4103603,-3.7075056,La China Mandarina,NO STREET 9999,Madrid
restaurant,40.4106629,-3.7074954,La Barca del Patio,NO STREET 9999,Madrid
restaurant,40.4108981,-3.7078987,Casa Rodríguez,NO STREET 9999,Madrid
restaurant,40.4111073,-3.7074118,Cascorro,NO STREET 9999,Madrid
restaurant,40.4100488,-3.7088348,Solofirme,NO STREET 9999,Madrid
restaurant,40.4096809,-3.7086337,Mesón del Rastro,NO STREET 9999,Madrid
restaurant,40.4106751,-3.7087326,Los Tiernos,NO STREET 9999,Madrid
restaurant,40.4121339,-3.7091936,Taberna Matritum,Calle de la Cava Alta 17,Madrid
restaurant,40.4114684,-3.7098595,Tapioca,Plaza de la Cebada 9,Madrid
restaurant,40.4124541,-3.7084514,Cava María,NO STREET 9999,Madrid
restaurant,40.4121488,-3.7080352,Cantalejo,NO STREET 9999,Madrid
restaurant,40.4122248,-3.7081255,La Latina,NO STREET 9999,Madrid
restaurant,40.4122797,-3.7088812,Mad Café,Calle de la Cava Alta 13,Madrid
restaurant,40.4277291,-3.6902887,Sagardi,Paseo de la Castellana 13,Madrid
restaurant,40.4263466,-3.6956787,Mad Grill,NO STREET 9999,Madrid
restaurant,40.4256381,-3.6952666,IL COC,NO STREET 9999,Madrid
restaurant,40.4025219,-3.6803686,La Cevicuchería,NO STREET 9999,Madrid
restaurant,40.4296447,-3.7024341,Cervecería La Camocha,Calle de Fuencarral 114,Madrid
restaurant,40.4301132,-3.7033819,Mesón Cubano,NO STREET 9999,Madrid
restaurant,40.4347966,-3.6829695,Chikito,Calle de Diego de León 9999,Madrid
restaurant,40.4363317,-3.6809043,Depintxos,NO STREET 9999,Madrid
restaurant,40.4365907,-3.6865757,Tamero,Calle de Serrano 85,Madrid
restaurant,40.4371912,-3.687073,Blanca Rosa,Calle de López de Hoyos 13,Madrid
restaurant,40.437361,-3.6865518,La Úrsula,Calle de López de Hoyos 17,Madrid
restaurant,40.4376132,-3.6865268,Sushiwakka,Calle de Serrano 93,Madrid
restaurant,40.437087,-3.6865229,Lamucca,Calle de Serrano 91,Madrid
restaurant,40.437451,-3.6865027,La Taberna,Calle de Serrano 9999,Madrid
restaurant,40.4361646,-3.6848207,La Armonia,Calle del General Oráa 9999,Madrid
restaurant,40.4360749,-3.6862586,Hevia,Calle de Serrano 118,Madrid
restaurant,40.4361971,-3.6862478,Mesón 5Jotas,Calle de Serrano 118,Madrid
restaurant,40.4364074,-3.6861892,Ori,Calle de Serrano 9999,Madrid
restaurant,40.4351692,-3.6849646,El Séptimo,Calle de Diego de León 9999,Madrid
restaurant,40.4352013,-3.6844928,El Asador de Aranda,Calle de Diego de León 9999,Madrid
restaurant,40.4389209,-3.6946897,La Gabinoteca,Calle de Fernández de la Hoz 53,Madrid
restaurant,40.4959085,-3.3635746,Domino's Pizza,NO STREET 9999,Madrid
restaurant,40.4436888,-3.4623702,Don Baretto,NO STREET 9999,Madrid
restaurant,40.4434299,-3.4619647,Sidrería La Barrica,NO STREET 9999,Madrid
restaurant,40.446656,-3.47004,Topolino,NO STREET 9999,Madrid
restaurant,40.3106714,-3.4846442,Salones Oma,NO STREET 9999,Madrid
restaurant,40.4232926,-3.703864,Lamucca,Plaza de Carlos Cambronero 4,Madrid
restaurant,40.4230846,-3.7043878,Pez 8,Calle del Pez 8,Madrid
restaurant,40.4170322,-3.6995917,El Patio,Calle de Arlabán 1,Madrid
restaurant,40.3123375,-3.7166257,NO NAME,NO STREET 9999,Madrid
restaurant,40.3138305,-3.7163575,NO NAME,NO STREET 9999,Madrid
restaurant,40.3136178,-3.7168296,NO NAME,NO STREET 9999,Madrid
restaurant,40.4078841,-3.7526356,Restaurante Terraza El Parque,NO STREET 9999,Madrid
restaurant,40.4072308,-3.7470811,La catedral de oporto,NO STREET 9999,Madrid
restaurant,40.4145296,-3.6997834,Caffé dei Poeti,NO STREET 9999,Madrid
restaurant,40.415914,-3.6989759,Aroma,NO STREET 9999,Madrid
restaurant,40.3669179,-3.4868148,La taberna d'enmedio,NO STREET 9999,Madrid
restaurant,40.4288322,-3.7058858,La Tape,Calle de San Bernardo 88,Madrid
restaurant,40.4403399,-3.6975449,Casa Paulino,Calle de Alonso Cano 34,Madrid
restaurant,40.4287604,-3.6874038,El Padre,Calle de Serrano 45,Madrid
restaurant,40.5069625,-3.6556001,La Taberna del Foque,Calle de Manuel Pombo Angulo 18,Madrid
restaurant,40.4590939,-3.4483254,El Soto,NO STREET 9999,Madrid
restaurant,40.4592318,-3.4482555,La Guitarra II,NO STREET 9999,Madrid
restaurant,40.4268601,-3.7194291,La Creperie Easycrep,Paseo del Pintor Rosales 28,Madrid
restaurant,40.3900484,-3.7412007,Restaurante Hermanos Méndez,NO STREET 9999,Madrid
restaurant,40.4241941,-3.6731294,La Tagliatella,Avenida de Felipe II 17,Madrid
restaurant,40.4015691,-3.6071513,Mesón El Águila,NO STREET 9999,Madrid
restaurant,40.432067,-3.6718443,Milos,NO STREET 9999,Madrid
restaurant,40.4192728,-3.6746894,Taberna Moderna,NO STREET 9999,Madrid
restaurant,40.4194602,-3.6749567,Restaurante Sidrería Carlos Tartiere,NO STREET 9999,Madrid
restaurant,40.4195394,-3.6769279,Restaurante La Catapa,NO STREET 9999,Madrid
restaurant,40.4202627,-3.6775529,Restaurante La Montería,NO STREET 9999,Madrid
restaurant,40.3118856,-3.8778546,El Galeón,NO STREET 9999,Madrid
restaurant,40.4346614,-3.6801958,Restaurante Nipples,NO STREET 9999,Madrid
restaurant,40.4349285,-3.6800263,Restaurante La Alpargatería,NO STREET 9999,Madrid
restaurant,40.4080824,-3.6976141,Fantástico,NO STREET 9999,Madrid
restaurant,40.3386533,-3.3810878,Bar Restaurante El Gatus,NO STREET 9999,Madrid
restaurant,40.394229,-3.6793779,100 Montaditos,Calle de la Estrella Hadar 1,Madrid
restaurant,40.4072034,-3.7522988,Jardín de Oriente,NO STREET 9999,Madrid
restaurant,40.4684087,-3.7175501,Bar Los Poetas,NO STREET 9999,Madrid
restaurant,40.3971447,-3.7657243,Kiosco de Pizza,Calle de Illescas 5,Madrid
restaurant,40.3647735,-3.6024825,El Jardín III,NO STREET 9999,Madrid
restaurant,40.4141212,-3.7012349,Del Olivo,Calle de las Huertas 3,Madrid
restaurant,40.4090165,-3.6936473,Trattoria Pinocchio,Calle de Sánchez Bustillo 5,Madrid
restaurant,40.4091828,-3.6940348,Sanabria,Calle del Doctor Mata 3,Madrid
restaurant,40.4272699,-3.7037405,Sandos,Plaza del 2 de Mayo 9999,Madrid
restaurant,40.3645762,-3.5937193,Tokyo,NO STREET 9999,Madrid
restaurant,40.4200398,-3.6989861,Janatomo,Calle de la Reina 27,Madrid
restaurant,40.4202793,-3.6998454,Petit Comité,Calle de la Reina 15,Madrid
restaurant,40.420611,-3.7007827,Vesuvio Pizza,Calle de Hortaleza 4,Madrid
restaurant,40.420186,-3.6993425,Udon Chueca,Calle del Clavel 6,Madrid
restaurant,40.4200269,-3.699222,Del Diego,Calle de la Reina 12,Madrid
restaurant,40.4196856,-3.6975503,La Paella de la Reina,Calle de la Reina 39,Madrid
restaurant,40.4137977,-3.7126172,Charlie Champagne,Calle de Segovia 17,Madrid
restaurant,40.3528077,-3.7008454,Restaurante Miguel Ángel,Hermandad Donantes Sangre 43,Madrid
restaurant,40.3714262,-3.6075598,VadePizza,NO STREET 9999,Madrid
restaurant,40.3970484,-3.7656352,Campa,NO STREET 9999,Madrid
restaurant,40.4083497,-3.699554,El Económico,Calle de Argumosa 9,Madrid
restaurant,40.4517306,-3.8664652,La Gitana,NO STREET 9999,Madrid
restaurant,40.4769304,-3.479486,Blanco's & De Julia,Calle del Ocio 57,Madrid
restaurant,40.4767641,-3.4796052,Índalo Tapas,Calle del Ocio 70-71,Madrid
restaurant,40.4769017,-3.4792215,La Isla del Sur,NO STREET 9999,Madrid
restaurant,40.4749137,-3.4809565,VIPS,NO STREET 9999,Madrid
restaurant,40.3707883,-3.6130348,Xing,Avenida Ensanche de Vallecas 9,Madrid
restaurant,40.3703509,-3.6121418,Nueva York,NO STREET 9999,Madrid
restaurant,40.3706331,-3.6127344,El Ensanche,NO STREET 9999,Madrid
restaurant,40.4474802,-3.6902476,Mesón José Luis,Paseo de La Habana 4,Madrid
restaurant,40.4544745,-3.6835575,Al Paseo,Paseo de La Habana 65,Madrid
restaurant,40.4477378,-3.6952009,Da Nicola,NO STREET 9999,Madrid
restaurant,40.4514819,-3.6943466,TGI Friday's,NO STREET 9999,Madrid
restaurant,40.4543933,-3.6874191,José Luis,NO STREET 9999,Madrid
restaurant,40.4588709,-3.4493222,Ágape,NO STREET 9999,Madrid
restaurant,40.542165,-3.6910112,Cafetería de Derecho,NO STREET 9999,Madrid
restaurant,40.5428257,-3.6925519,Cafetería de Biología,NO STREET 9999,Madrid
restaurant,40.4078927,-3.7045348,Tam Coc,Calle de Mira el Sol 9999,Madrid
restaurant,40.3382471,-3.7325758,Wok Garden,NO STREET 9999,Madrid
restaurant,40.4094202,-3.7041097,Baobab,Calle de los Cabestreros 1,Madrid
restaurant,40.4118145,-3.7031148,Pizzería Della Cabeza,Calle de Lavapiés 6,Madrid
restaurant,40.4177311,-3.7095419,NO NAME,NO STREET 9999,Madrid
restaurant,40.4187577,-3.7086523,Ouh Babbo!,Calle de Caños del Peral 9999,Madrid
restaurant,40.3734471,-3.6194517,Las Cubas,NO STREET 9999,Madrid
restaurant,40.4124333,-3.7001806,La Recoba,Calle de la Magdalena 27,Madrid
restaurant,40.4556144,-3.4793555,Livonia,NO STREET 9999,Madrid
restaurant,40.5068308,-3.8945649,Mi Hermano y Yo,NO STREET 9999,Madrid
restaurant,40.414069,-3.7037744,La Tagliatella,NO STREET 9999,Madrid
restaurant,40.4900203,-3.8717413,Pizzería Ciao,NO STREET 9999,Madrid
restaurant,40.4561876,-3.6889683,Anica Waksman,"Profesor Waksman, 5 9999",Madrid
restaurant,40.4559182,-3.6888477,La Nonna,Profesor Waksman 6 9999,Madrid
restaurant,40.452816,-3.4724411,Ribera,NO STREET 9999,Madrid
restaurant,40.4326965,-3.702436,Casa Bulgogi,Calle del Cardenal Cisneros 49,Madrid
restaurant,40.4324518,-3.7132396,Pasta Pesto Pizta Pizza,Calle de Guzmán el Bueno 20,Madrid
restaurant,40.4493032,-3.4672395,El Caserío,NO STREET 9999,Madrid
restaurant,40.413704,-3.7250995,Chacón - La casa del Lacón,NO STREET 9999,Madrid
restaurant,40.398325,-3.7876469,Espazo Enxebre,Calle de Luis Buñuel 1,Madrid
restaurant,40.3951867,-3.7976325,Wok Garden,NO STREET 9999,Madrid
restaurant,40.4369649,-3.6871252,La Doma,Calle de López de Hoyos 10,Madrid
restaurant,40.4256092,-3.6678941,De Hermosilla,NO STREET 9999,Madrid
restaurant,40.4233435,-3.669061,Pobre de Mi,NO STREET 9999,Madrid
restaurant,40.403105,-3.6631023,Taberna Búlgara,NO STREET 9999,Madrid
restaurant,40.4144026,-3.7291113,Parador de Bayona,NO STREET 9999,Madrid
restaurant,40.4138754,-3.7250941,A Ría de Noia,NO STREET 9999,Madrid
restaurant,40.4061701,-3.698953,Pizzería La Diavoletta,NO STREET 9999,Madrid
restaurant,40.4109537,-3.7178626,Seoul,Ronda de Segovia 25,Madrid
restaurant,40.4069704,-3.6950056,Shangyuan,NO STREET 9999,Madrid
restaurant,40.4314925,-3.7158525,Hong Kong City,NO STREET 9999,Madrid
restaurant,40.4255522,-3.7134151,Sabor de Sichuan,Calle de Santa María Micaela 9999,Madrid
restaurant,40.425619,-3.7135233,Bentley's,Calle de Ventura Rodríguez 5,Madrid
restaurant,40.4139047,-3.6989568,El León de Oro,NO STREET 9999,Madrid
restaurant,40.4136579,-3.6988496,Miranda,Calle de las Huertas 29,Madrid
restaurant,40.4143757,-3.6984651,Pizzamascalzone,NO STREET 9999,Madrid
restaurant,40.4564599,-3.4765337,China Town,NO STREET 9999,Madrid
restaurant,40.4142469,-3.6902653,Balzac,Calle Moreto 7,Madrid
restaurant,40.4133189,-3.6902126,Trattoria SantArcangelo,Calle Moreto 15,Madrid
restaurant,40.3856279,-3.7444298,La Flor de la Canela,Avenida de Nuestra Señora de Fátima 15,Madrid
restaurant,40.4603049,-3.4596106,Chacabuco,Avenida de la Constitución 205,Madrid
restaurant,40.4592364,-3.4630954,Alasal,Avenida de la Constitución 130,Madrid
restaurant,40.4601278,-3.4603346,Hong Xing,NO STREET 9999,Madrid
restaurant,40.4602521,-3.459953,La Casona de Antonio,NO STREET 9999,Madrid
restaurant,40.4192475,-3.7045106,La Soleá,Calle de Mesonero Romanos 6,Madrid
restaurant,40.4225052,-3.7091321,Tony Roma's,Gran Vía 68,Madrid
restaurant,40.4144392,-3.7321514,Currito,NO STREET 9999,Madrid
restaurant,40.4119117,-3.7356235,Macoes,NO STREET 9999,Madrid
restaurant,40.4118276,-3.711608,Dona Camila,NO STREET 9999,Madrid
restaurant,40.413253,-3.7121466,Wu Wei,NO STREET 9999,Madrid
restaurant,40.413303,-3.7123536,NO NAME,NO STREET 9999,Madrid
restaurant,40.4821652,-3.395314,Restaurante Cruz Blanca,Avenida de Juan Carlos I 13,Madrid
restaurant,40.4246734,-3.7097508,Bombay Masala,Calle de San Bernardino 1,Madrid
restaurant,40.4197484,-3.7066739,Antoinette,Calle Preciados 34,Madrid
restaurant,40.4238923,-3.7091036,Vega,Calle del Álamo 3,Madrid
restaurant,40.4246264,-3.709681,Habibi,Plaza del Conde de Toreno 2,Madrid
restaurant,40.4248392,-3.709861,Jin Jin,Calle de San Bernardino 1,Madrid
restaurant,40.4249899,-3.7098677,Wang Wang,Calle de San Bernardino 6,Madrid
restaurant,40.4247819,-3.7097856,Esfahan,Calle de San Bernardino 1,Madrid
restaurant,40.4249284,-3.7097918,Siam,Calle de San Bernardino 6,Madrid
restaurant,40.4243977,-3.7093672,Taberna del Mozárabe,Calle de los Reyes 6,Madrid
restaurant,40.4236184,-3.7092883,Chincha Casa Perú,Plaza de los Mostenses 3,Madrid
restaurant,40.4675695,-3.8115195,Los Remos,NO STREET 9999,Madrid
restaurant,40.4568445,-3.4733807,Il Bambino,NO STREET 9999,Madrid
restaurant,40.420229,-3.7127391,Hache,Calle de Bailén 7,Madrid
restaurant,40.4213633,-3.7216412,San Antonio,NO STREET 9999,Madrid
restaurant,40.4143382,-3.7326839,La Pesca,NO STREET 9999,Madrid
restaurant,40.4219599,-3.7136359,Las Tablas,NO STREET 9999,Madrid
restaurant,40.4103444,-3.7024668,La Victoria,Calle de Lavapiés 27,Madrid
restaurant,40.4097832,-3.7024206,Shapla,Calle de Lavapiés 42,Madrid
restaurant,40.409339,-3.7020612,Calcuta,NO STREET 9999,Madrid
restaurant,40.4087713,-3.7008603,Raj Puth,NO STREET 9999,Madrid
restaurant,40.3252561,-3.800529,NO NAME,NO STREET 9999,Madrid
restaurant,40.4080006,-3.7459504,La Jaca,NO STREET 9999,Madrid
restaurant,40.4079428,-3.7461223,TAN-GO,NO STREET 9999,Madrid
restaurant,40.467595,-3.8110227,Gaztelubide,NO STREET 9999,Madrid
restaurant,40.4452296,-3.6975472,NO NAME,NO STREET 9999,Madrid
restaurant,40.39538,-3.7682195,Las Pecas: Tex-Mex pizza,NO STREET 9999,Madrid
restaurant,40.4214274,-3.6984127,Masa Madre,Calle de San Marcos 17,Madrid
restaurant,40.4214799,-3.6979661,El Bierzo,Calle de Barbieri 16,Madrid
restaurant,40.4215857,-3.6980068,Le Cocó,Calle de Barbieri 15,Madrid
restaurant,40.4317989,-3.7164258,La Panza es Primero,NO STREET 9999,Madrid
restaurant,40.4138561,-3.711551,Turkana,NO STREET 9999,Madrid
restaurant,40.4318093,-3.7116055,Los Ángeles,Calle de Rodríguez San Pedro 36,Madrid
restaurant,40.4233396,-3.6981607,Vegaviana,Calle de Pelayo 35,Madrid
restaurant,40.4080258,-3.6991619,La Funda Mental,NO STREET 9999,Madrid
restaurant,40.4220838,-3.7030382,Lab '84,Calle de la Puebla 9,Madrid
restaurant,40.39725,-3.7658137,Chie's Place,NO STREET 9999,Madrid
restaurant,40.4610322,-3.4828718,La Casa Grande,Calle de Madrid 2,Madrid
restaurant,40.4777123,-3.4785633,La Tagliatella,NO STREET 9999,Madrid
restaurant,40.4773092,-3.4788968,WOK & Pasta,NO STREET 9999,Madrid
restaurant,40.4547021,-3.6909526,Sukothay - Japonés y thailandés,NO STREET 9999,Madrid
restaurant,40.5379668,-3.6336957,Bar Restaurante Alcalá,Bulevar Salvador Allende 17,Madrid
restaurant,40.357456,-3.6856589,Restaurante Oriental Victoria,NO STREET 9999,Madrid
restaurant,40.4363246,-3.6205603,Restaurante Rast,Albala 9999,Madrid
restaurant,40.4549728,-3.6943138,Saona,Calle Pedro Teixeira 8,Madrid
restaurant,40.4181191,-3.699256,VIPS,Calle de Alcalá 23,Madrid
restaurant,40.4181354,-3.6991863,GINO'S,NO STREET 9999,Madrid
restaurant,40.4559162,-3.6926439,Museo del jamón,NO STREET 9999,Madrid
restaurant,40.4007021,-3.6740997,Estrella Central,Avenida de la Ciudad de Barcelona 192,Madrid
restaurant,40.340484,-3.377059,Restaurante La Noguera,Carretera de Loeches 91 873 32 71,Madrid
restaurant,40.5102939,-3.6785848,VIPS,Calle de Isabel Colbrand 20,Madrid
restaurant,40.4475399,-3.4554735,Foster's Hollywood,Calle de la Cañada 1,Madrid
restaurant,40.4448403,-3.4539399,Un Rincón de Madrid,NO STREET 9999,Madrid
restaurant,40.3772683,-3.5417069,Caserío Pipatune,NO STREET 9999,Madrid
restaurant,40.3767936,-3.5396707,Dejavu,NO STREET 9999,Madrid
restaurant,40.4407523,-3.6992459,ARIMA,Calle de Ponzano 51,Madrid
restaurant,40.4224261,-3.6994754,Restaurante Vivares,Calle de Hortaleza 52,Madrid
restaurant,40.4215917,-3.6973896,La Nieta,Calle de la Libertad 25,Madrid
restaurant,40.4213246,-3.7180187,Bioloco,NO STREET 9999,Madrid
restaurant,40.4392996,-3.7003108,Bar Cruz de Mayo,Santa Engracia 110,Madrid
restaurant,40.4222805,-3.7076165,Lena,Calle de San Bernardo 12,Madrid
restaurant,40.4215617,-3.7017509,San Onofre,Calle de San Onofre 10,Madrid
restaurant,40.5062199,-3.33278,Blanco's de Julia,NO STREET 9999,Madrid
restaurant,40.5062287,-3.3323313,Foster's Hollywood,NO STREET 9999,Madrid
restaurant,40.5059743,-3.332837,Salad's & Co.,NO STREET 9999,Madrid
restaurant,40.4965284,-3.6902302,O'Ribeirinho,NO STREET 9999,Madrid
restaurant,40.3959467,-3.7540916,Aynaelda,Calle de los Yébenes 38,Madrid
restaurant,40.4931448,-3.654702,Soul kitchen,Calle del Príncipe Carlos 9999,Madrid
restaurant,40.4920701,-3.6529201,Hak,Avenida del Alcalde Conde de Mayalde 37,Madrid
restaurant,40.4949227,-3.6587789,Barra De Pintxos,Calle del Principe Carlos 9999,Madrid
restaurant,40.4948236,-3.6586351,Brasa & Pasta,Calle del Príncipe Carlos 9999,Madrid
restaurant,40.4931952,-3.6560323,Ni Hao,Calle del Príncipe Carlos 19,Madrid
restaurant,40.4251996,-3.7105807,Rte. Bar Mundi,Calle de San Bernardino 7,Madrid
restaurant,40.4285343,-3.7030124,Puro Teatro,Calle de Manuela Malasaña 9,Madrid
restaurant,40.4302761,-3.7018164,Samara,Calle del Cardenal Cisneros 15,Madrid
restaurant,40.4362502,-3.7044794,Casa Adolfo,Calle de Bravo Murillo 27,Madrid
restaurant,40.3391527,-3.7322926,Pizza Jardín,NO STREET 9999,Madrid
restaurant,40.4392085,-3.6193841,NO NAME,NO STREET 9999,Madrid
restaurant,40.4395065,-3.6192339,NO NAME,NO STREET 9999,Madrid
restaurant,40.4225777,-3.681808,El Chiscón,Calle de Castelló 3,Madrid
restaurant,40.5044064,-3.8925523,Omar y Tierra,NO STREET 9999,Madrid
restaurant,40.5194301,-3.8975764,Don Soba,NO STREET 9999,Madrid
restaurant,40.5196423,-3.8973317,Rodilla,NO STREET 9999,Madrid
restaurant,40.323524,-3.758338,El Cebadero,NO STREET 9999,Madrid
restaurant,40.346569,-3.3722447,Los Jarales,NO STREET 9999,Madrid
restaurant,40.4956837,-3.4167155,La Cabaña,Calle de Juan Oró D2,Madrid
restaurant,40.3971312,-3.6652164,Lupita IV,Calle del Monte Olivetti 32,Madrid
restaurant,40.4035592,-3.6981029,El Roble,NO STREET 9999,Madrid
restaurant,40.4622251,-3.8665345,Pizza Jardín,Avenida de España 78,Madrid
restaurant,40.4127889,-3.6997456,La Vera,Calle de Atocha 57,Madrid
restaurant,40.425561,-3.7195139,Asador Molino de los Porches,NO STREET 9999,Madrid
restaurant,40.4210103,-3.7197439,Foster's Hollywood,NO STREET 9999,Madrid
restaurant,40.4164803,-3.7077567,El Ñeru,Calle de Bordadores 5,Madrid
restaurant,40.4196753,-3.6763117,Restaurante Triana,Calle de Narváez 48,Madrid
restaurant,40.3043291,-3.8547153,La Independencia,NO STREET 9999,Madrid
restaurant,40.3693864,-3.4844885,Bar-Restaurante Los Romeros,NO STREET 9999,Madrid
restaurant,40.418079,-3.6754706,Espada Da'Tomaso,NO STREET 9999,Madrid
restaurant,40.4281529,-3.694936,Portosín,NO STREET 9999,Madrid
restaurant,40.5086428,-3.9155588,Gaztelubide,Ctra Las Rozas - El Escorial km5,Madrid
restaurant,40.5093214,-3.6679714,Pintxos,NO STREET 9999,Madrid
restaurant,40.425762,-3.7146375,Las Mil y Una Noches,Calle de Martín de los Heros 28,Madrid
restaurant,40.3653049,-3.4892709,El Roble,NO STREET 9999,Madrid
restaurant,40.4245087,-3.7016365,Bar Lozano,Calle de San Joaquín 9999,Madrid
restaurant,40.4131984,-3.6750319,Al Socaire,Calle de Pío Baroja 10,Madrid
restaurant,40.2932737,-3.7906843,Wok,NO STREET 9999,Madrid
restaurant,40.2834994,-3.7902923,Restaurante La Corte,NO STREET 9999,Madrid
restaurant,40.2897933,-3.790225,Restaurante Chengjisihan,NO STREET 9999,Madrid
restaurant,40.288558,-3.7830508,El Manjar,Cuzco 32,Madrid
restaurant,40.2831039,-3.7948903,Kurdistán Dorger,NO STREET 9999,Madrid
restaurant,40.3969653,-3.4950729,"Restaurante Los Hornos, S.A.","Carretera de Mejorada a San fernando de Henares Km 0,100 KM 0,100",Madrid
restaurant,40.4487969,-3.7379546,Facultad de Veterinaria,NO STREET 9999,Madrid
restaurant,40.5239151,-3.6592514,Restaurante Europa 3,NO STREET 9999,Madrid
restaurant,40.2750953,-3.7994446,Cruz de Fuenlabrada,NO STREET 9999,Madrid
restaurant,40.2749457,-3.8003147,Mesón La Parrilla,NO STREET 9999,Madrid
restaurant,40.4454358,-3.5330932,El Paleto,NO STREET 9999,Madrid
restaurant,40.2798311,-3.7982069,Mesón Galicia,Calle de Extremadura 4,Madrid
restaurant,40.2804656,-3.7948079,Restaurante Chino,NO STREET 9999,Madrid
restaurant,40.4156157,-3.6718127,Pinocchio,Plaza del Doctor Laguna 7,Madrid
restaurant,40.2807102,-3.7974787,Restaurante Chino,NO STREET 9999,Madrid
restaurant,40.2805908,-3.7987134,La Parada,Calle de Luis Sauquilllo 77,Madrid
restaurant,40.373439,-3.6217926,Nuestro Bar,NO STREET 9999,Madrid
restaurant,40.4136179,-3.6743841,Pazo Coruña,Calle de Pío Baroja 6,Madrid
restaurant,40.4181185,-3.6767528,Da Kiko - Pasta e Pizza,Calle de Ibiza 16,Madrid
restaurant,40.2905548,-3.7928049,Bar Restaurante Los Molinos,NO STREET 9999,Madrid
restaurant,40.3978755,-3.863529,La Cañada,NO STREET 9999,Madrid
restaurant,40.2932422,-3.7930261,Restaurante Chino Jardín Feliz,NO STREET 9999,Madrid
restaurant,40.468002,-3.7224352,Come y caña,NO STREET 9999,Madrid
restaurant,40.4019117,-3.8864202,La taverna de Alfredo,NO STREET 9999,Madrid
restaurant,40.4003756,-3.8853795,Puerta de Sevilla,NO STREET 9999,Madrid
restaurant,40.4055612,-3.887593,La morenica del Bierzo,NO STREET 9999,Madrid
restaurant,40.4053328,-3.893486,Las tres nueces,NO STREET 9999,Madrid
restaurant,40.4053512,-3.8938338,NO NAME,NO STREET 9999,Madrid
restaurant,40.4049848,-3.8952726,O Carro,NO STREET 9999,Madrid
restaurant,40.4076877,-3.895765,La antigua taberna,NO STREET 9999,Madrid
restaurant,40.3344048,-3.8769058,Restaurante Alumnos,NO STREET 9999,Madrid
restaurant,40.3372749,-3.8756285,Restaurante profesores,NO STREET 9999,Madrid
restaurant,40.4278944,-3.5619282,Ya sushi,NO STREET 9999,Madrid
restaurant,40.4143452,-3.7264511,Las Marismas,NO STREET 9999,Madrid
restaurant,40.294315,-3.7870657,Mesón Leitariegos,NO STREET 9999,Madrid
restaurant,40.2943783,-3.7857344,Mesón El Risco,NO STREET 9999,Madrid
restaurant,40.2945695,-3.7892508,Sabor Añejo,NO STREET 9999,Madrid
restaurant,40.4363248,-3.70409,Lizarran,Calle de Bravo Murillo 24,Madrid
restaurant,40.4372453,-3.7040493,Piscolabis,Calle de Bravo Murillo 34,Madrid
restaurant,40.4362604,-3.7040912,Casa Hilda,Calle de Viriato 15,Madrid
restaurant,40.4369553,-3.704067,Huerto y Brasa,Calle de Bravo Murillo 32,Madrid
restaurant,40.4364767,-3.7040322,Mesón Fernando,Calle de Bravo Murillo 26,Madrid
restaurant,40.4646737,-3.721344,Oriental Palace,NO STREET 9999,Madrid
restaurant,40.4709107,-3.7223125,Restaurante La Parra,NO STREET 9999,Madrid
restaurant,40.4460761,-3.4836868,La Serranía,NO STREET 9999,Madrid
restaurant,40.4472821,-3.470269,La Tapería del Sur,NO STREET 9999,Madrid
restaurant,40.4070346,-3.6756195,Los Viñedos,NO STREET 9999,Madrid
restaurant,40.38798,-3.7661296,Passaparola,NO STREET 9999,Madrid
restaurant,40.3878815,-3.7660957,Guang Zhou,Calle de Guareña 10,Madrid
restaurant,40.4591096,-3.7179805,Mirador del Narcea,Calle de Francos Rodríguez 81,Madrid
restaurant,40.4427453,-3.7133622,VIPS,NO STREET 9999,Madrid
restaurant,40.4431338,-3.7166282,NO NAME,NO STREET 9999,Madrid
restaurant,40.4492162,-3.7128052,Donate,NO STREET 9999,Madrid
restaurant,40.4492448,-3.7125222,NO NAME,NO STREET 9999,Madrid
restaurant,40.4262932,-3.5265848,"Wok, buffet libre",Calle de Nazario Calonge 40,Madrid
restaurant,40.3381595,-3.5277152,Dim Sum wok,NO STREET 9999,Madrid
restaurant,40.3380806,-3.5265535,Muerde la Pasta,NO STREET 9999,Madrid
restaurant,40.3410289,-3.5352634,Wok,NO STREET 9999,Madrid
restaurant,40.3877528,-3.7660562,Casa Coronel,NO STREET 9999,Madrid
restaurant,40.4783508,-3.3645697,Galayo,NO STREET 9999,Madrid
restaurant,40.4775571,-3.3681518,Mesón Cabañón,NO STREET 9999,Madrid
restaurant,40.4832472,-3.3659388,El Ambigú,NO STREET 9999,Madrid
restaurant,40.4830227,-3.3677211,El Rinconazo,Calle de Santiago 15,Madrid
restaurant,40.4824602,-3.3659646,Mesón Las Cuadras de Rocinante,Calle de Carmen Calzado 1,Madrid
restaurant,40.48058,-3.3726723,Mesón Puerta Madrid,NO STREET 9999,Madrid
restaurant,40.4151701,-3.7018097,Taberna Pompeyana,NO STREET 9999,Madrid
restaurant,40.4539113,-3.3431133,Restaurante el Gurugú,NO STREET 9999,Madrid
restaurant,40.4295828,-3.7190864,Il cratere del gusto,NO STREET 9999,Madrid
restaurant,40.5188805,-3.8943538,Monterrey,Calle de Severo Ochoa 3,Madrid
restaurant,40.4197656,-3.7068279,La Tagliatella,Calle Preciados 36,Madrid
restaurant,40.4189978,-3.7063507,Carpe Diem vinoteca,Calle del Postigo de San Martín 5,Madrid
restaurant,40.4214832,-3.709914,9.teishoku,Calle de Leganitos 10,Madrid
restaurant,40.4117997,-3.7037506,Badila,Calle de San Pedro Mártir 6,Madrid
restaurant,40.4108769,-3.7049558,NO NAME,NO STREET 9999,Madrid
restaurant,40.401396,-3.7180839,El Rancho,Paseo de los Melancólicos 77,Madrid
restaurant,40.4557157,-3.7041586,Lizarran,NO STREET 9999,Madrid
restaurant,40.4440858,-3.4714899,Triana,NO STREET 9999,Madrid
restaurant,40.4555174,-3.7035435,Mesón Los Aros,NO STREET 9999,Madrid
restaurant,40.5406434,-3.6151696,Brasayleña,NO STREET 9999,Madrid
restaurant,40.5413868,-3.6152474,La Tagliatella,NO STREET 9999,Madrid
restaurant,40.4008797,-3.7514239,Trilla La Tahona,NO STREET 9999,Madrid
restaurant,40.5408631,-3.6149306,Wok House,NO STREET 9999,Madrid
restaurant,40.5412025,-3.6109652,Wok House,NO STREET 9999,Madrid
restaurant,40.540842,-3.6156087,100 montaditos,NO STREET 9999,Madrid
restaurant,40.4281119,-3.6903528,Enso Sushi,Paseo de la Castellana 15,Madrid
restaurant,40.4605635,-3.4836486,Asador Castilla,Calle de la Ronda de Poniente 21,Madrid
restaurant,40.4133992,-3.712782,La Almendra de la Morería,NO STREET 9999,Madrid
restaurant,40.4108014,-3.7113686,La Copita Asturiana,Calle Tabernillas 13,Madrid
restaurant,40.4151747,-3.7133534,La Dehesa de Santa María,Calle Mayor 88,Madrid
restaurant,40.4130126,-3.7134301,Zoco,NO STREET 9999,Madrid
restaurant,40.4116285,-3.7109435,La Muralla,NO STREET 9999,Madrid
restaurant,40.411831,-3.710589,La Potente,Calle de la Cava Baja 42,Madrid
restaurant,40.4101448,-3.7120274,Viuda de Vacas,Calle del Águila 2,Madrid
restaurant,40.410662,-3.7099827,Lai Fhuc,NO STREET 9999,Madrid
restaurant,40.4105256,-3.7117029,La Pizpireta,NO STREET 9999,Madrid
restaurant,40.4101937,-3.7123383,Los Ángeles,NO STREET 9999,Madrid
restaurant,40.4100457,-3.7123468,Casa Mateos,NO STREET 9999,Madrid
restaurant,40.4112233,-3.710632,Taberna El Búho,Calle Humilladero 9999,Madrid
restaurant,40.4101838,-3.7118118,Taberna J. Blanco,NO STREET 9999,Madrid
restaurant,40.410247,-3.7117506,El Bombín de Sabina,NO STREET 9999,Madrid
restaurant,40.4105984,-3.7134164,San Francisco 13,Carrera de San Francisco 13,Madrid
restaurant,40.4106028,-3.710243,Urumea,NO STREET 9999,Madrid
restaurant,40.4209203,-3.7159319,La Figal. Comidas caseras,Calle de Arriaza 7,Madrid
restaurant,40.4138083,-3.715722,Torayo Antonio,NO STREET 9999,Madrid
restaurant,40.4879765,-3.6673409,D'Madrid,Avenida de Manoteras 22,Madrid
restaurant,40.4876267,-3.6645921,Crono,Avenida de Manoteras 46,Madrid
restaurant,40.2830738,-3.7982071,Mesón La Unión,NO STREET 9999,Madrid
restaurant,40.3622291,-3.7589554,Las Brasas de Morales,NO STREET 9999,Madrid
restaurant,40.3622128,-3.7586121,Petter Rabbit and Friends,NO STREET 9999,Madrid
restaurant,40.3615812,-3.7577162,El Fogón de Olvido,NO STREET 9999,Madrid
restaurant,40.3618142,-3.7562517,Il Pomo d'oro,NO STREET 9999,Madrid
restaurant,40.3619757,-3.7559942,El Chiscón de la Ribera,NO STREET 9999,Madrid
restaurant,40.3620309,-3.7553934,Mesón La Peseta,NO STREET 9999,Madrid
restaurant,40.4761885,-3.853674,Rong Hua,NO STREET 9999,Madrid
restaurant,40.4681495,-3.8708466,Vips,NO STREET 9999,Madrid
restaurant,40.4687582,-3.871052,El Toro,NO STREET 9999,Madrid
restaurant,40.4699758,-3.8715037,La Goleta,NO STREET 9999,Madrid
restaurant,40.4213404,-3.6693494,Los Barriletes,Calle de O'Donnell 63,Madrid
restaurant,40.2869594,-3.7918476,Restaurante Chino Palacio,NO STREET 9999,Madrid
restaurant,40.4337726,-3.5403729,Jantoki,NO STREET 9999,Madrid
restaurant,40.2874201,-3.7873178,Mesón Asturiano,NO STREET 9999,Madrid
restaurant,40.4238389,-3.7054308,El Bistró del Teatro,Calle del Pez 20,Madrid
restaurant,40.4417495,-3.7142099,Pizza Jardín,Paseo de San Francisco de Sales 25,Madrid
restaurant,40.3084866,-3.7252553,Asador Baserri,NO STREET 9999,Madrid
restaurant,40.4596576,-3.4651483,Verónica,NO STREET 9999,Madrid
restaurant,40.4189932,-3.7093862,Sanissimo,Calle de Campomanes 5,Madrid
restaurant,40.4196721,-3.7091627,Delfos,Cuesta de Santo Domingo 14,Madrid
restaurant,40.4076218,-3.7494255,Juca Cervecería,NO STREET 9999,Madrid
restaurant,40.3929389,-3.7554134,Las Murallas,NO STREET 9999,Madrid
restaurant,40.3916974,-3.7031479,El Rincón de Sixto,NO STREET 9999,Madrid
restaurant,40.3891331,-3.7008566,La Parrilla,NO STREET 9999,Madrid
restaurant,40.3902699,-3.6948301,Xin Hui Fon,NO STREET 9999,Madrid
restaurant,40.39176,-3.6951968,Restaurante El Mirador,NO STREET 9999,Madrid
restaurant,40.3920984,-3.6961216,Taberna Criolla,NO STREET 9999,Madrid
restaurant,40.3941176,-3.6982766,Marisquería O´Portiño,Plaza del General Maroto 1,Madrid
restaurant,40.3952903,-3.698515,El Tizón,Calle de Jaime I El Conquistador 42,Madrid
restaurant,40.3958958,-3.7011909,Luis,NO STREET 9999,Madrid
restaurant,40.3964475,-3.6991991,go hyang mat,NO STREET 9999,Madrid
restaurant,40.3980962,-3.6981931,Don José,Calle Torres Miranda 2,Madrid
restaurant,40.3988617,-3.7014414,Casa Luis,NO STREET 9999,Madrid
restaurant,40.3965246,-3.6979293,Parras,NO STREET 9999,Madrid
restaurant,40.3997057,-3.6999893,Alconada,NO STREET 9999,Madrid
restaurant,40.3969863,-3.6964256,La Casa de Chen,NO STREET 9999,Madrid
restaurant,40.3968085,-3.6962994,Wenger,NO STREET 9999,Madrid
restaurant,40.4294952,-3.7219844,La Vaca,Paseo del Pintor Rosales 52,Madrid
restaurant,40.3987063,-3.7011208,NO NAME,NO STREET 9999,Madrid
restaurant,40.3967276,-3.6966787,Bar Alonso,NO STREET 9999,Madrid
restaurant,40.3952005,-3.6951744,City de Oro,NO STREET 9999,Madrid
restaurant,40.3921939,-3.6932917,China Town,NO STREET 9999,Madrid
restaurant,40.3931425,-3.6942438,Fang,Calle de los Embajadores 186,Madrid
restaurant,40.3916886,-3.6936871,Anta,NO STREET 9999,Madrid
restaurant,40.3916698,-3.6937667,Casa Candil,Calle Bolívar 7,Madrid
restaurant,40.3919476,-3.6929196,Buenas y Santas,Calle Bolívar 9,Madrid
restaurant,40.3981093,-3.7021654,Viejo Madrid,NO STREET 9999,Madrid
restaurant,40.3921718,-3.6947613,Bremen,NO STREET 9999,Madrid
restaurant,40.3924736,-3.6947225,La Flor de Asturias,NO STREET 9999,Madrid
restaurant,40.3932428,-3.6946347,El Tarugo,NO STREET 9999,Madrid
restaurant,40.4218867,-3.532511,Bambú,NO STREET 9999,Madrid
restaurant,40.4234136,-3.5328866,Arrocería 002,Carretera de San Fernando a Mejorada 6,Madrid
restaurant,40.4241148,-3.533786,Goyma,NO STREET 9999,Madrid
restaurant,40.4250223,-3.5331821,El Mesonero,Avenida de la Constitución 13,Madrid
restaurant,40.4264158,-3.5373639,Mavericks,Travesía de la Era 1,Madrid
restaurant,40.4272791,-3.5369615,El Gran Mesón,Calle Albino Pérez de Ayestaráin 37,Madrid
restaurant,40.4291885,-3.5321315,Guernica,Avenida de la Virgen de Montserrat 3,Madrid
restaurant,40.4264133,-3.5372484,Joey's Sa,Travesía de la Era 3,Madrid
restaurant,40.4273716,-3.5358183,2001,NO STREET 9999,Madrid
restaurant,40.4273418,-3.5323783,Jaén II,Calle Nueva 4,Madrid
restaurant,40.425016,-3.5319107,Asador Rey Fernando VI,Plaza de Fernando VI 10,Madrid
restaurant,40.4819771,-3.7178905,Bodas Imperio,NO STREET 9999,Madrid
restaurant,40.4820951,-3.7175817,Bar Restaurante La Ponderosa,Avenida del Cardenal Herrera Oria 231,Madrid
restaurant,40.4256264,-3.661802,Cafetín La Quimera,NO STREET 34,Madrid
restaurant,40.3896808,-3.7525243,La Picapizza,Calle de Illescas 100,Madrid
restaurant,40.3898844,-3.7528066,Oriental,NO STREET 9999,Madrid
restaurant,40.3900504,-3.7530542,Passaparola,NO STREET 9999,Madrid
restaurant,40.4731464,-3.3728133,La Mezquita,Calle San Vidal 9999,Madrid
restaurant,40.3127236,-3.486172,Buffalo Grill,NO STREET 9999,Madrid
restaurant,40.4776117,-3.4790268,Kekexily,NO STREET 9999,Madrid
restaurant,40.4536932,-3.6218016,Matsuri,NO STREET 9999,Madrid
restaurant,40.4159786,-3.7016048,Taberna La Alhambra,Calle de la Victoria 9,Madrid
restaurant,40.4630051,-3.6165784,NO NAME,NO STREET 9999,Madrid
restaurant,40.4288873,-3.5322279,Casa Bao,NO STREET 9999,Madrid
restaurant,40.386846,-3.7520124,Chop Suey,NO STREET 9999,Madrid
restaurant,40.386637,-3.751593,Di Adrianna Pizza&Pasta,NO STREET 9999,Madrid
restaurant,40.4400722,-3.6294844,Ginos,NO STREET 9999,Madrid
restaurant,40.4272019,-3.7100959,La cajita de Nori,Calle del Limón 30,Madrid
restaurant,40.4888475,-3.6618528,Pepe's,Calle de Oña 121,Madrid
restaurant,40.4864212,-3.6626457,La Parrilla del Hontanal,Avenida de la Fuente de la Mora 2,Madrid
restaurant,40.4614303,-3.4689347,La Canasta,NO STREET 9999,Madrid
restaurant,40.3879137,-3.7655525,El Duero,NO STREET 9999,Madrid
restaurant,40.388345,-3.7662382,La Librería Alejandría,NO STREET 9999,Madrid
restaurant,40.3888824,-3.7663974,Radiante Oriental,NO STREET 9999,Madrid
restaurant,40.3886507,-3.7663267,Trattoria di Aluche,NO STREET 9999,Madrid
restaurant,40.410196,-3.697543,Café Bar Alma,NO STREET 9999,Madrid
restaurant,40.4636354,-3.5924192,Bahía Taberna,Calle Bahía de Palma 9,Madrid
restaurant,40.4381918,-3.7152002,Alcaravea Gaztambide,Calle de Gaztambide 56,Madrid
restaurant,40.432882,-3.6957906,Lua,Paseo de Eduardo Dato 5,Madrid
restaurant,40.4254426,-3.6746794,Museo del Jamón,Calle de Alcalá 155,Madrid
restaurant,40.4235782,-3.670879,Victoria,NO STREET 9999,Madrid
restaurant,40.2829767,-3.7862922,Restaurante La Curva,NO STREET 9999,Madrid
restaurant,40.4644344,-3.6971507,Mesón Gallego III,Plaza de la Remonta 5,Madrid
restaurant,40.5051065,-3.3720355,Tupamaro,NO STREET 9999,Madrid
restaurant,40.5051706,-3.8916616,Hamburguesa Nostra,NO STREET 9999,Madrid
restaurant,40.4013283,-3.6206469,El Chaflán del Bulevar,Bulevar de Indalecio Prieto 17,Madrid
restaurant,40.4014756,-3.621316,Taberna de la Chana,Bulevar de Indalecio Prieto 18,Madrid
restaurant,40.3785858,-3.7538307,Dimas,NO STREET 9999,Madrid
restaurant,40.4741727,-3.8606031,Tony Roma's,Carretera del Plantío km 1.8,Madrid
restaurant,40.4351388,-3.697266,100 Montaditos,NO STREET 9999,Madrid
restaurant,40.4666378,-3.8667904,Foster´s Hollywood,NO STREET 9999,Madrid
restaurant,40.4238344,-3.7070669,Sidrería La Cuenca,Calle de la Cruz Verde 16,Madrid
restaurant,40.4568397,-3.6877463,Más que Pintxos,Calle Doctor Fleming 24,Madrid
restaurant,40.3170827,-3.4815811,Casa Julián,NO STREET 9999,Madrid
restaurant,40.3150375,-3.4784718,César,NO STREET 9999,Madrid
restaurant,40.3921771,-3.739915,Bohemia,NO STREET 9999,Madrid
restaurant,40.4034873,-3.745243,Casa Finis,NO STREET 9999,Madrid
restaurant,40.395232,-3.7430722,Chifa El Retablo de Kelly,NO STREET 9999,Madrid
restaurant,40.3945865,-3.7425361,La Brasería,NO STREET 9999,Madrid
restaurant,40.3922884,-3.7401523,La Casa de Lin,NO STREET 9999,Madrid
restaurant,40.3953788,-3.7430807,Los Cármenes Pulpería Caracolería,NO STREET 9999,Madrid
restaurant,40.3972995,-3.7441719,Mesón El Molinero,Calle de la Alhambra 72,Madrid
restaurant,40.3967811,-3.7440537,Mesón del Cordero,Calle de la Alhambra 80,Madrid
restaurant,40.4034271,-3.7456947,Victoria,NO STREET 9999,Madrid
restaurant,40.46416,-3.7052407,"Almazara, Taberna Andaluza",Calle del Marqués de Viana 80,Madrid
restaurant,40.3986341,-3.7727923,Bar J. del Val,NO STREET 9999,Madrid
restaurant,40.54034,-3.633183,Restaurant Argentino,NO STREET 9999,Madrid
restaurant,40.4105668,-3.7500066,El Merendero,NO STREET 9999,Madrid
restaurant,40.4107811,-3.7517461,Pizza & Pasta El Mirador,NO STREET 9999,Madrid
restaurant,40.4125666,-3.7482145,Pizzería La Fragua,NO STREET 9999,Madrid
restaurant,40.4122059,-3.7499896,Bocatas El Templete,NO STREET 9999,Madrid
restaurant,40.4114914,-3.7514748,Burguer La Posta,NO STREET 9999,Madrid
restaurant,40.4118063,-3.7512443,Restaurante Café Tropical,NO STREET 9999,Madrid
restaurant,40.4114294,-3.7514944,Salchichería El Grill Alemán,NO STREET 9999,Madrid
restaurant,40.4166091,-3.7015702,Museo del Jamón,NO STREET 9999,Madrid
restaurant,40.4133368,-3.7098774,Café del Nuncio,NO STREET 9999,Madrid
restaurant,40.4474824,-3.7036959,100 Montaditos,NO STREET 9999,Madrid
restaurant,40.4471374,-3.7052172,Reina Victoria,NO STREET 9999,Madrid
restaurant,40.4374882,-3.6347889,Asador Parrilla,NO STREET 9999,Madrid
restaurant,40.4366809,-3.6393577,Virgen del Cisne,NO STREET 9999,Madrid
restaurant,40.4163792,-3.7078349,Yerbabuena,Calle de Bordadores 3,Madrid
restaurant,40.4226928,-3.6782764,Bocoy,NO STREET 9999,Madrid
restaurant,40.4227245,-3.6787109,Tapería Saraiba,NO STREET 9999,Madrid
restaurant,40.4227122,-3.6785379,Estilo II,NO STREET 9999,Madrid
restaurant,40.4233051,-3.6786467,Foster's Hollywood,NO STREET 9999,Madrid
restaurant,40.4003467,-3.7516973,La Famiglia,Calle de la Latina 35,Madrid
restaurant,40.388491,-3.7306618,Gran Nemrut Oporto,NO STREET 9999,Madrid
restaurant,40.403829,-3.7449805,Kebab Antep,NO STREET 9999,Madrid
restaurant,40.3887362,-3.7310805,Sidrería Yakarta,NO STREET 9999,Madrid
restaurant,40.4110608,-3.6941894,Matilda,Calle Almadén 15,Madrid
restaurant,40.4112111,-3.6948323,Ganz,NO STREET 9999,Madrid
restaurant,40.482565,-3.355099,Mayca,Paseo de la Alameda 9999,Madrid
restaurant,40.4180365,-3.5241116,Mesón Casa Pepe,Avenida de Algorta 17,Madrid
restaurant,40.4224544,-3.7229346,La Estación,Paseo de la Florida 31,Madrid
restaurant,40.4183316,-3.7043938,Café Carmen,Calle del Carmen 17,Madrid
restaurant,40.4128097,-3.7138878,El Ventorrillo,Calle de Bailén 14,Madrid
restaurant,40.4146851,-3.6945994,Estado Puro,Plaza de Cánovas del Castillo 4,Madrid
restaurant,40.4143652,-3.7011349,Lateral Santa Ana,Plaza de Santa Ana 12,Madrid
restaurant,40.4557174,-3.6806804,De La Riva,NO STREET 9999,Madrid
restaurant,40.4561847,-3.6781484,La Cocina de San Román,NO STREET 9999,Madrid
restaurant,40.4549166,-3.679156,Royal Fenix,NO STREET 9999,Madrid
restaurant,40.3994689,-3.6594717,La perla oriental,Camino de Valderribas 93,Madrid
restaurant,40.4587463,-3.449907,Ca' Tabla,NO STREET 9999,Madrid
restaurant,40.3896143,-3.9791423,Restaurante El Vivero,NO STREET 9999,Madrid
restaurant,40.410864,-3.7307719,El Señor de los Milagros,NO STREET 9999,Madrid
restaurant,40.394106,-3.7956617,La Tagliatella,NO STREET 9999,Madrid
restaurant,40.3939408,-3.7956407,Wagaboo,NO STREET 9999,Madrid
restaurant,40.3939257,-3.796923,Foster's Hollywood,NO STREET 9999,Madrid
restaurant,40.4421266,-3.6408342,La Terraza,Calle de Arturo Soria 42,Madrid
restaurant,40.4165272,-3.6995613,La Rollerie,Carrera de San Jerónimo 9999,Madrid
restaurant,40.4166082,-3.7013775,Lhardy,NO STREET 9999,Madrid
restaurant,40.4164268,-3.7017415,Pulpería de Victoria,NO STREET 9999,Madrid
restaurant,40.3858074,-3.703228,Rest. La Parrila de Usera,Calle de La Pilarica 29,Madrid
restaurant,40.4274374,-3.6619109,Or-Dago,NO STREET 9999,Madrid
restaurant,40.4125848,-3.7036451,La Carpa,NO STREET 9999,Madrid
restaurant,40.4121225,-3.7044957,La Parrilla de Galicia,Plaza de Tirso de Molina 7,Madrid
restaurant,40.4181945,-3.70899,De María Ópera,Plaza de Isabel II 2,Madrid
restaurant,40.4125686,-3.7041644,Apolo,NO STREET 9999,Madrid
restaurant,40.4046103,-3.7080685,Raku Sushi,NO STREET 9999,Madrid
restaurant,40.41948,-3.6753811,Barandales,Calle de Menorca 31,Madrid
restaurant,40.4153209,-3.7065788,Restaurante Hegar,Plaza Mayor 35,Madrid
restaurant,40.4918314,-3.7058181,Lazcano,Calle de Nuria 51,Madrid
restaurant,40.4917368,-3.7045768,Porche de Lazcano,Calle de Nuria 26,Madrid
restaurant,40.4427337,-3.713189,Gino's,NO STREET 9999,Madrid
restaurant,40.4499425,-3.6951039,Vip's,NO STREET 9999,Madrid
restaurant,40.3872344,-3.7004131,La casa del pulpo,Calle de los Almendrales 17,Madrid
restaurant,40.5054432,-3.5281754,El Albero,NO STREET 9999,Madrid
restaurant,40.5042501,-3.5319761,NO NAME,NO STREET 9999,Madrid
restaurant,40.4259462,-3.5395755,Las Palmeras,NO STREET 9999,Madrid
restaurant,40.3676021,-3.6007266,Peggy Sue's,NO STREET 9999,Madrid
restaurant,40.3998387,-3.6469963,Spices Cave,NO STREET 9999,Madrid
restaurant,40.5160596,-3.897819,Solera,Camilo José Cela 2,Madrid
restaurant,40.5159066,-3.8974917,Gambrinus,Camilo José Cela 9999,Madrid
restaurant,40.5161391,-3.8979397,Sagasti,Camilo José Cela 2,Madrid
restaurant,40.49419,-3.88059,Flanker GastroBar,Lope de Vega 2,Madrid
restaurant,40.4927427,-3.8764138,MoGa,Calle de la Fuente 6,Madrid
restaurant,40.4896,-3.87595,El Jamoncito,Comunidad de Madrid 37,Madrid
restaurant,40.5227672,-3.8908454,El Ocho,NO STREET 9999,Madrid
restaurant,40.493615,-3.876383,Casa Luis,Oslo 1,Madrid
restaurant,40.5059104,-3.8922076,El Tomate de Las Rozas,Bruselas 35,Madrid
restaurant,40.5248082,-3.8857811,Calleja,Camino de las Ceudas 2,Madrid
restaurant,40.489247,-3.8743917,La Alternativa,Comunidad de Madrid 35,Madrid
restaurant,40.492615,-3.876413,La Chalota,Calle de la Fuente 7,Madrid
restaurant,40.5048376,-3.8906283,Pasiones Argentinas,Avenida Paris 38,Madrid
restaurant,40.51902,-3.90036,The lobby cafe,Juan Ramon Jimenez 3,Madrid
restaurant,40.482555,-3.857628,El Asador De Aranda,Carretera de La Coruna km.16.9,Madrid
restaurant,40.4924,-3.87578,La Taberna de Regiones,Calle Iglesia de San Miguel 2,Madrid
restaurant,40.5185447,-3.898482,Coyoacan,Calle de Camilo José Cela 1,Madrid
restaurant,40.483437,-3.867675,La Nines,Chiapas 4,Madrid
restaurant,40.4930899,-3.8677345,La Vaca Argentina,Carretera de La Coruna Km.18,Madrid
restaurant,40.4938329,-3.8763475,El Montecillo,San Agustin 2,Madrid
restaurant,40.4985303,-3.8872259,La Bodega de Európolis,Calle Cabo Rufino Lázaro 9,Madrid
restaurant,40.5035107,-3.703334,La Bella Anna,NO STREET 9999,Madrid
restaurant,40.4695079,-3.715119,Fa Comida Asia Express,NO STREET 9999,Madrid
restaurant,40.4138307,-3.6979373,Pasto,Calle de Lope de Vega 15,Madrid
restaurant,40.4151932,-3.6991697,Indian Spice,Calle de Manuel Fernández y González 17,Madrid
restaurant,40.4570569,-3.7042384,La Piña,NO STREET 9999,Madrid
restaurant,40.4669664,-3.6743262,El Chaflan,NO STREET 9999,Madrid
restaurant,40.4018867,-3.6699715,Bustos,NO STREET 9999,Madrid
restaurant,40.4020718,-3.6737502,Las Hurdes,NO STREET 9999,Madrid
restaurant,40.3260038,-3.7300137,NO NAME,NO STREET 9999,Madrid
restaurant,40.3276426,-3.7317245,NO NAME,NO STREET 9999,Madrid
restaurant,40.4125882,-3.7088125,Cava Baja 17,Calle de la Cava Baja 17,Madrid
restaurant,40.4128754,-3.6912761,El Botánico,Calle Ruiz de Alarcón 27,Madrid
restaurant,40.403907,-3.67202,Vermont,NO STREET 9999,Madrid
restaurant,40.4027744,-3.6724906,Villar,NO STREET 9999,Madrid
restaurant,40.5089519,-3.6781516,Queen,Castiello De Jaca 14,Madrid
restaurant,40.4399718,-3.6298459,Tommy Mel's,NO STREET 9999,Madrid
restaurant,40.4407856,-3.6284583,Bar Paquito,NO STREET 9999,Madrid
restaurant,40.4343149,-3.629114,Los Molinos II,Calle de Julián Camarillo 10,Madrid
restaurant,40.39407,-3.7959234,Gino's,NO STREET 9999,Madrid
restaurant,40.3937732,-3.7958892,Tony Roma's,NO STREET 9999,Madrid
restaurant,40.4021252,-3.6985008,Havana Blues,NO STREET 9999,Madrid
restaurant,40.4157877,-3.7076505,Bar Andalú La Torre del Oro,Plaza Mayor 26,Madrid
restaurant,40.4150004,-3.7068389,Bar Plaza Mayor,Plaza Mayor 2,Madrid
restaurant,40.4149941,-3.7079475,Gustos,Plaza Mayor 7,Madrid
restaurant,40.4152228,-3.7065714,Liana 1962,Plaza Mayor 35,Madrid
restaurant,40.4150063,-3.706646,Los Arcos,Plaza Mayor 1,Madrid
restaurant,40.4153814,-3.7081082,Museo del Jamón,Plaza Mayor 18,Madrid
restaurant,40.4170809,-3.7073497,La casa gallega ресторан Эдуарда,Calle de Bordadores 11,Madrid
restaurant,40.4050724,-3.6766365,El Laurel Natural,NO STREET 9999,Madrid
restaurant,40.4037192,-3.6780652,La Taberna Griega,NO STREET 9999,Madrid
restaurant,40.4043102,-3.6759327,Restaurante San Román,NO STREET 9999,Madrid
restaurant,40.4069416,-3.6775955,Arroz y Café,NO STREET 9999,Madrid
restaurant,40.4070035,-3.6785358,Restaurante A Ribeira Sacra,NO STREET 9999,Madrid
restaurant,40.3923847,-3.6885513,La Madreña,Calle del Bronce 4,Madrid
restaurant,40.3862864,-3.7185155,El Parrillero,Calle Évora 16,Madrid
restaurant,40.4262403,-3.7013748,Taberna Madrid - Madriz,Calle de Fuencarral 85,Madrid
restaurant,40.4583127,-3.6746609,Marisquería Norte-Sur 2,Calle de Costa Rica 16,Madrid
restaurant,40.4731281,-3.5818105,Gema II,NO STREET 9999,Madrid
restaurant,40.4147835,-3.7082768,TragaTapas,NO STREET 9999,Madrid
restaurant,40.4574335,-3.692846,La Tahona,Calle del Poeta Joan Maragall 21,Madrid
restaurant,40.41016,-3.6942012,Roxy bar,Calle de Atocha 115,Madrid
restaurant,40.4122258,-3.6991251,Museo del Jamón,NO STREET 9999,Madrid
restaurant,40.4103045,-3.6945137,Azahar,Calle de Atocha 111,Madrid
restaurant,40.4102621,-3.6944184,Jinode,Calle de Atocha 111,Madrid
restaurant,40.4094834,-3.7022293,Taj Mahal,Calle de Lavapiés 46,Madrid
restaurant,40.4342102,-3.7010958,Sagaretxe,Calle de Eloy Gonzalo 26,Madrid
restaurant,40.4312105,-3.7018759,El Paisano,Calle de Alburquerque 15,Madrid
restaurant,40.4892876,-3.6507476,La Pulpería del Peregrino,Calle del Príncipe Carlos 30,Madrid
restaurant,40.3448748,-3.7093251,Dakar,NO STREET 9999,Madrid
restaurant,40.450161,-3.571595,Los Galeones,NO STREET 9999,Madrid
restaurant,40.4467238,-3.7123108,Gabaldón,Calle Estudiantes 2,Madrid
restaurant,40.4588175,-3.6803366,Más que Pintxos,Avenida de Alberto Alcocer 43,Madrid
restaurant,40.4583062,-3.6853693,VIPS Padre Damián,Calle del Padre Damián 38,Madrid
restaurant,40.4197995,-3.6993966,SteakBurger,Gran Vía 16,Madrid
restaurant,40.4128944,-3.713448,Gauranga,NO STREET 9999,Madrid
restaurant,40.3920208,-3.6796595,El Virrey de San Telmo II,Calle del Planeta Tierra 4,Madrid
restaurant,40.4231403,-3.707312,Luna Rossa,Calle de San Bernardo 24,Madrid
restaurant,40.4242248,-3.7067479,El Saltón,Calle del Pez 29,Madrid
restaurant,40.4218596,-3.7057048,La Buenaventura,Calle de Silva 25,Madrid
restaurant,40.4219365,-3.7056096,Home Burger Bar,Calle de Silva 25,Madrid
restaurant,40.4230675,-3.7074134,Kinza,Calle de San Bernardo 22,Madrid
restaurant,40.4211562,-3.7056049,El Buda Feliz,Calle de los Tudescos 9999,Madrid
restaurant,40.4518098,-3.688277,Alduccio,Avenida de Concha Espina 8,Madrid
restaurant,40.4524625,-3.687472,Asador de la Esquina,NO STREET 9999,Madrid
restaurant,40.4637916,-3.685037,Ginos López Pozas,Calle del General López Pozas 2,Madrid
restaurant,40.4540899,-3.6932823,Kilómetros de Pizza,Avenida de Brasil 6,Madrid
restaurant,40.4464205,-3.7106408,La Llama,Avenida de la Reina Victoria 37,Madrid
restaurant,40.4572955,-3.6859672,La coloquial,Calle del Padre Damián 21,Madrid
restaurant,40.4131941,-3.7085117,Posada del León de Oro,Calle de la Cava Baja 12,Madrid
restaurant,40.4522314,-3.6884827,Realcafé Bernabéu,Avenida de Concha Espina 1,Madrid
restaurant,40.4122714,-3.7095269,Taberna los Huevos de Lucio,Calle de la Cava Baja 30,Madrid
restaurant,40.4420206,-3.713093,100 Montaditos,Paseo de San Francisco de Sales 36,Madrid
restaurant,40.3998384,-3.7108483,Mis Tradiciones,NO STREET 9999,Madrid
restaurant,40.3999528,-3.7107478,O´Boi Parrilla,NO STREET 9999,Madrid
restaurant,40.4208871,-3.7055728,Oishii Sushi & Ramen,Calle de Miguel Moya 6,Madrid
restaurant,40.4243287,-3.7065782,Goiko Grill,Calle del Pez 36,Madrid
restaurant,40.4220815,-3.706348,Xiangzili Bar Restaurante,Calle Francisco Ricci;Calle de los Libreros 15;18,Madrid
restaurant,40.4266127,-3.7038772,Pizzería Maravillas,Plaza del 2 de Mayo 9,Madrid
restaurant,40.4257005,-3.7085704,NO NAME,Calle de Noviciado 14,Madrid
restaurant,40.4286843,-3.7031176,Nuria,Calle de Manuela Malasaña 6,Madrid
restaurant,40.4259006,-3.7133788,Hanan,Calle de Ventura Rodríguez 3,Madrid
restaurant,40.419408,-3.7074626,El Labriego,Calle de las Veneras 4,Madrid
restaurant,40.428586,-3.703475,Casa Maravillas,Calle de Manuela Malasaña 13,Madrid
restaurant,40.5101718,-3.689937,VIPS,NO STREET 9999,Madrid
restaurant,40.4058072,-3.7462282,Huariche,NO STREET 9999,Madrid
restaurant,40.3992807,-3.6951226,Los Cotos,NO STREET 9999,Madrid
restaurant,40.4617774,-3.6957845,Asador donostiarra,Calle de la Infanta Mercedes 79,Madrid
restaurant,40.424137,-3.5641722,China Town,Calle Trafalgar 6,Madrid
restaurant,40.5232311,-3.8911374,Vips,NO STREET 9999,Madrid
restaurant,40.5231414,-3.8911428,Ginos,NO STREET 9999,Madrid
restaurant,40.4820512,-3.6704395,Gino’s,NO STREET 9999,Madrid
restaurant,40.3550772,-3.8076949,Casa Santa Cruz,NO STREET 9999,Madrid
restaurant,40.4109566,-3.6579442,Dong Cheng,Calle del Camino de los Vinateros 7,Madrid
restaurant,40.4187296,-3.6210873,NO NAME,NO STREET 9999,Madrid
restaurant,40.4222245,-3.6123675,NO NAME,NO STREET 9999,Madrid
restaurant,40.4251406,-3.6795681,Vips,NO STREET 9999,Madrid
restaurant,40.4252766,-3.703638,Avocado Love,Calle del Marqués de Santa Ana 34,Madrid
restaurant,40.4249734,-3.7042025,Las Noches de Moscú,Calle del Marqués de Santa Ana 37,Madrid
restaurant,40.4812988,-3.7147386,La panza de Sancho,NO STREET 9999,Madrid
restaurant,40.4213738,-3.7092363,Vietnam Mekong,Calle de Isabel La Católica 11,Madrid
restaurant,40.4770761,-3.4787523,El Paso,NO STREET 9999,Madrid
restaurant,40.4072746,-3.6476498,La taberna de Doña Jimena,Avenida de Moratalaz 149,Madrid
restaurant,40.468231,-3.6383813,A´ Fenestella,Calle de Torquemada 25,Madrid
restaurant,40.4240125,-3.7059379,Sobrado,Calle del Pez 30,Madrid
restaurant,40.4239395,-3.7050535,La Copla,Calle de Jesús del Valle 1,Madrid
restaurant,40.4243666,-3.7067557,El Rincón de Pez,Calle del Pez 38,Madrid
restaurant,40.4242309,-3.7065022,Pez Tortilla,Calle del Pez 36,Madrid
restaurant,40.4286057,-3.7036443,Albur,Calle de Manuela Malasaña 15,Madrid
restaurant,40.4270907,-3.7085261,La Taquería de Birra,Plaza de las Comendadoras 2,Madrid
restaurant,40.4198397,-3.7081399,Dehesa Santa María,Costanilla de los Ángeles 15,Madrid
restaurant,40.4156264,-3.7084029,Valle del Tiétar,Calle Ciudad Rodrigo 5,Madrid
restaurant,40.4156141,-3.7083143,Casa Rúa,Calle Ciudad Rodrigo 3,Madrid
restaurant,40.4157731,-3.7080496,CasaMaría,Plaza Mayor 23,Madrid
restaurant,40.4155385,-3.7081543,Cafetería Magerit,Plaza Mayor 22,Madrid
restaurant,40.4151057,-3.7080819,Bar Tineo,Plaza Mayor 14,Madrid
restaurant,40.4150447,-3.7080835,Café Zarra,Plaza Mayor 13,Madrid
restaurant,40.4150064,-3.7076962,Cervecería Éboli,Plaza Mayor 4-5,Madrid
restaurant,40.5399011,-3.6117275,Kokoxaxa,Avenida del Juncal 24,Madrid
restaurant,40.4228862,-3.7076716,Café Bar Tábara,Calle de San Bernardo 25,Madrid
restaurant,40.4222039,-3.7078465,Mesón O'Luar,Calle de San Bernardo 17,Madrid
restaurant,40.4219833,-3.7077029,Asian,Calle de San Bernardo 10,Madrid
restaurant,40.4219023,-3.7077241,Paraíso del Jamón,Calle de San Bernardo 8,Madrid
restaurant,40.4203785,-3.7080769,Cafetería Oskar,Calle de Silva 2,Madrid
restaurant,40.4203546,-3.7079386,Domingo's,Calle de Jacometrezo 9999,Madrid
restaurant,40.420085,-3.7078849,O' Faro Finisterre,Calle de Jacometrezo 15,Madrid
restaurant,40.4200045,-3.7078402,La Abadía,Calle de Jacometrezo 15,Madrid
restaurant,40.4199733,-3.7078185,Shisha,Calle de Jacometrezo 15,Madrid
restaurant,40.4198877,-3.7077564,Topolino,Calle Preciados 50,Madrid
restaurant,40.4197098,-3.707584,Café Varela,Calle Preciados 37,Madrid
restaurant,40.4194843,-3.7076302,Bar La Alegría,Calle de las Veneras 7,Madrid
restaurant,40.4194578,-3.7076176,Don Bacalao,Calle de las Veneras 7,Madrid
restaurant,40.4193115,-3.7075029,Mareas Vivas,Calle de las Veneras 3,Madrid
restaurant,40.4186679,-3.7071852,Esencia al Cuadrado,Travesía de los Trujillos 2,Madrid
restaurant,40.4133029,-3.6990756,La Dama Boba,Calle del León 23,Madrid
restaurant,40.4128937,-3.7083362,Taberna del Capitán Alatriste,Calle Grafal 7,Madrid
restaurant,40.4240439,-3.7098458,Jinlai,Calle de los Reyes 12,Madrid
restaurant,40.4260668,-3.6983114,La Potxola,Calle de San Mateo 19,Madrid
restaurant,40.4177056,-3.7093085,Asador Real,Plaza de Isabel II 1,Madrid
restaurant,40.4240988,-3.7104027,Shun Shui,Calle del Maestro Guerrero 9999,Madrid
restaurant,40.4246662,-3.7113161,La Chalana,Calle de San Leonardo 12,Madrid
restaurant,40.4149224,-3.6949679,Vips Neptuno,Plaza de Cánovas del Castillo 5,Madrid
restaurant,40.4175851,-3.7107589,Agra Palace,Calle de Vergara 7,Madrid
restaurant,40.5399166,-3.6121739,The Knife Restaurant,Avenida del Juncal 22,Madrid
restaurant,40.4259896,-3.673598,Howe,Calle de Hermosilla 103,Madrid
restaurant,40.4260366,-3.6747333,Joya Oriental,Calle de Hermosilla 101,Madrid
restaurant,40.4261,-3.6770154,Grosso Napoletano,Calle de Hermosilla 85,Madrid
restaurant,40.4259651,-3.6784422,Casa Poli,Calle del General Pardiñas 28,Madrid
restaurant,40.4261851,-3.6793198,Bar Camorrillo,Calle de Hermosilla 67,Madrid
restaurant,40.4261557,-3.6787937,Tacoos,Calle de Hermosilla 73,Madrid
restaurant,40.426184,-3.6792243,Teppanyaki,Calle de Hermosilla 69,Madrid
restaurant,40.4261049,-3.68181,Aromas,Calle de Hermosilla 48,Madrid
restaurant,40.4263865,-3.683255,DéFiLé Café,Calle de Hermosilla 39,Madrid
restaurant,40.4261201,-3.6820574,Estay,Calle de Hermosilla 46,Madrid
restaurant,40.4264156,-3.6838196,Mas Q Menos,Calle de Velázquez 44,Madrid
restaurant,40.4264939,-3.6853756,El Pimiento Verde,Calle de Hermosilla 23,Madrid
restaurant,40.4237936,-3.7028378,Casa Fidel,Calle de El Escorial 6,Madrid
restaurant,40.4221166,-3.7058077,La Rayúa,Calle de la Luna 3,Madrid
restaurant,40.4223176,-3.7060932,Vega,Calle de la Luna 9,Madrid
restaurant,40.4183956,-3.7075337,Califa,Calle de los Trujillos 3,Madrid
restaurant,40.4188884,-3.7073543,Casa Parrondo,Calle de los Trujillos 9999,Madrid
restaurant,40.4189847,-3.7074466,Casa Valiño,Calle de los Trujillos 9,Madrid
restaurant,40.4190184,-3.707335,Igo Ramen,Calle de las Navas de Tolosa 9,Madrid
restaurant,40.4187834,-3.7074757,El Zagal,Calle de los Trujillos 7,Madrid
restaurant,40.4177572,-3.7076556,El Escarpín,Calle de las Hileras 17,Madrid
restaurant,40.4170061,-3.7081921,El Cogollo de la Descarga,Calle de las Hileras 6,Madrid
restaurant,40.4170477,-3.7082922,Taquería Mi Ciudad,Calle de las Hileras 5,Madrid
restaurant,40.4239141,-3.7101785,Nemrut,Calle de los Reyes 16,Madrid
restaurant,40.424072,-3.7097802,Jin Ling,Calle de los Reyes 12,Madrid
restaurant,40.4240986,-3.7097183,Tapa China,Calle de los Reyes 10,Madrid
restaurant,40.4237655,-3.7100713,Taberna Rincón de Reyes,Calle de los Reyes 21,Madrid
restaurant,40.422129,-3.7057222,Kung Fu,Calle de la Luna 12,Madrid
restaurant,40.4258133,-3.7129994,Kai Thai,Calle de la Princesa 13,Madrid
restaurant,40.4257794,-3.7129756,TGB,Calle de la Princesa 13,Madrid
restaurant,40.4257016,-3.7129209,Foster Hollywood,Calle de la Princesa 13,Madrid
restaurant,40.425453,-3.7127424,100 Montaditos,Calle de la Princesa 7,Madrid
restaurant,40.4251457,-3.7044677,Taberna Griega,Calle del Tesoro 6,Madrid
restaurant,40.4254809,-3.703973,Ojalá,Calle de San Andrés 1,Madrid
restaurant,40.4282463,-3.7033075,Topolino,Calle de San Andrés 38,Madrid
restaurant,40.4356707,-3.6578552,NO NAME,NO STREET 9999,Madrid
restaurant,40.435293,-3.6582253,Retorno,NO STREET 9999,Madrid
restaurant,40.414926,-3.7012268,Zahara,Plaza de Santa Ana 1,Madrid
restaurant,40.4151263,-3.7014088,Taberna Fragua de Vulcano,Calle de Álvarez Gato 9,Madrid
restaurant,40.4147404,-3.7014786,Villa Rosa,Plaza de Santa Ana 15,Madrid
restaurant,40.4151538,-3.7019713,Las Bravas,Calle de Álvarez Gato 3,Madrid
restaurant,40.4231503,-3.7108165,Lupita Cuzco,Gran Vía 73,Madrid
restaurant,40.4231214,-3.7107694,Tapas 44,Gran Vía 71,Madrid
restaurant,40.4220247,-3.7090445,DiBocca,Gran Vía 59,Madrid
restaurant,40.4219873,-3.7083241,Don Jamón,Gran Vía 60,Madrid
restaurant,40.4220558,-3.7090951,Mesón El Jamón,Gran Vía 59,Madrid
restaurant,40.4215815,-3.7083425,Jamón 55,Gran Vía 55,Madrid
restaurant,40.4216466,-3.7047663,Elemental Bistro,Corredera Baja de San Pablo 4,Madrid
restaurant,40.4216762,-3.7047343,Malpica,Corredera Baja de San Pablo 4,Madrid
restaurant,40.4217326,-3.7046742,Byblos,Corredera Baja de San Pablo 4,Madrid
restaurant,40.4221388,-3.7041956,Maricastaña,Corredera Baja de San Pablo 12,Madrid
restaurant,40.4210238,-3.7055614,Surya,Calle de Miguel Moya 9999,Madrid
restaurant,40.4620393,-3.4701777,El Rincón de Rafa,Calle de La Veredilla 10,Madrid
restaurant,40.4255139,-3.7074505,NAP,Calle de San Bernardo 51,Madrid
restaurant,40.4252419,-3.7072915,Cervecería Padrón,Calle de San Bernardo 56,Madrid
restaurant,40.4246882,-3.707329,NO NAME,Calle de San Bernardo 46,Madrid
restaurant,40.425618,-3.7073982,Fit Fat Food,Calle de San Bernardo 53,Madrid
restaurant,40.4257836,-3.7073005,La Concha,Calle de San Bernardo 55,Madrid
restaurant,40.4269689,-3.7066522,Magumar,Calle de San Bernardo 69,Madrid
restaurant,40.5429876,-3.4576406,Boca a Boca,Carretera de Alcalá 7,Madrid
restaurant,40.4203351,-3.6131469,NO NAME,NO STREET 9999,Madrid
restaurant,40.4200329,-3.6150459,Pizzería di Carlo,NO STREET 9999,Madrid
restaurant,40.4204434,-3.6138657,El Desván,NO STREET 9999,Madrid
restaurant,40.420727,-3.705586,La Prensa,Calle de Miguel Moya 4,Madrid
restaurant,40.4192126,-3.706068,El Cucurucho del Mar,Calle del Postigo de San Martín 6,Madrid
restaurant,40.4176632,-3.7070637,Madrid Grill,Calle de San Martín 3,Madrid
restaurant,40.4165193,-3.7077263,Mesón Gregorio III,Calle de Bordadores 5,Madrid
restaurant,40.4168162,-3.7075305,Gayagum,Calle de Bordadores 7,Madrid
restaurant,40.4157824,-3.7066073,Café & Tapas,Plaza Mayor 30,Madrid
restaurant,40.4155635,-3.7065987,El Soportal,Plaza Mayor 33,Madrid
restaurant,40.415034,-3.7064705,abanda,Plaza Mayor 1,Madrid
restaurant,40.4150191,-3.7050703,El Hortera,Calle de la Bolsa 12,Madrid
restaurant,40.4175729,-3.7095037,Lalín Casa del Pulpo,Calle de la Escalinata 9999,Madrid
restaurant,40.4198093,-3.708289,Sublime Tokyo,Cuesta de Santo Domingo 24,Madrid
restaurant,40.3921394,-3.6923406,Japan Pearl,Calle Bolívar 9999,Madrid
restaurant,40.392162,-3.6916569,Trujillo Burger,Calle Bolívar 9999,Madrid
restaurant,40.4238714,-3.70043,Casa Hortensia,Calle de la Farmacia 2,Madrid
restaurant,40.4234833,-3.6987086,San Wich,Calle de Hortaleza 78,Madrid
restaurant,40.4228372,-3.6998904,Everyday,Calle de Augusto Figueroa 9999,Madrid
restaurant,40.4689591,-3.6594529,Restaurante Pedreña,Avenida de la Gran Vía de Hortaleza 3,Madrid
restaurant,40.4341664,-3.7107569,El Centinela de Quevedo,Calle de Fernando el Católico 26,Madrid
restaurant,40.421527,-3.7059934,Ni Hao,Calle de Silva 20,Madrid
restaurant,40.4213704,-3.7061958,Curry Masala,Calle de Silva 16,Madrid
restaurant,40.4373416,-3.6798409,Café & Té,Calle de María de Molina 56,Madrid
restaurant,40.4374669,-3.6823303,Lemongrass,Calle de María de Molina 44,Madrid
restaurant,40.4375918,-3.6793841,Espazo Enxebre,Calle de María de Molina 39,Madrid
restaurant,40.4386715,-3.6761397,Camarón,Avenida de América 15,Madrid
restaurant,40.4401701,-3.6730661,Café Bio Rico,Calle de Clara del Rey 4,Madrid
restaurant,40.4402559,-3.6731908,Deza,Calle de Clara del Rey 4,Madrid
restaurant,40.4398565,-3.6740472,Patatín Company,Calle de Cartagena 103,Madrid
restaurant,40.4401788,-3.6733969,Peggy Sue's,Calle de Clara del Rey 4,Madrid
restaurant,40.4210317,-3.6998293,La Sacristía,Plaza de Pedro Zerolo 1,Madrid
restaurant,40.4238184,-3.7053818,Pontepez,Calle del Pez 18,Madrid
restaurant,40.4271135,-3.7096169,Roll,Calle de Amaniel 23,Madrid
restaurant,40.430012,-3.7139277,Compostela,Calle de Serrano Jover 6,Madrid
restaurant,40.4287273,-3.7059103,La Madrina,Calle de San Bernardo 86,Madrid
restaurant,40.4301509,-3.7100175,Asador Aranduero,Calle de Alberto Aguilera 26,Madrid
restaurant,40.4304127,-3.7123481,Bergantiños,Calle de Alberto Aguilera 46,Madrid
restaurant,40.429935,-3.7077097,Pomodoro,Calle de Alberto Aguilera 12,Madrid
restaurant,40.4298533,-3.7099679,Sidrería Villa de Avilés,Calle de Alberto Aguilera 19,Madrid
restaurant,40.4296397,-3.7078534,Noname Bar,Calle de Alberto Aguilera 5,Madrid
restaurant,40.4310965,-3.7144296,El Gran Jamonal,Calle de Andrés Mellado 6,Madrid
restaurant,40.4308257,-3.7148182,La Montaña,Calle de Andrés Mellado 3,Madrid
restaurant,40.4310196,-3.7148081,Luo's,Calle de Andrés Mellado 5,Madrid
restaurant,40.4317149,-3.7144296,Magerit,Calle de Andrés Mellado 14,Madrid
restaurant,40.4320798,-3.7143918,El Rey de las Tortillas,Calle de Andrés Mellado 16,Madrid
restaurant,40.4325758,-3.7146065,El Tendido 2,Calle de Andrés Mellado 21,Madrid
restaurant,40.4323769,-3.7144265,El Tendido,Calle de Andrés Mellado 20,Madrid
restaurant,40.4352409,-3.7145432,La Taberna de Moncloa,Calle de Andrés Mellado 45,Madrid
restaurant,40.435225,-3.714235,La Villa,Calle de Andrés Mellado 54,Madrid
restaurant,40.4281732,-3.7094513,Rías Baixas,Calle de Amaniel 36,Madrid
restaurant,40.4280793,-3.7094379,Muy,Calle de Amaniel 36,Madrid
restaurant,40.4307372,-3.7051894,Zarracín,Calle de San Bernardo 106,Madrid
restaurant,40.4285013,-3.7063016,Menomale,Calle de San Bernardo 85,Madrid
restaurant,40.4303735,-3.7057437,AviBurger,Calle de San Bernardo 97,Madrid
restaurant,40.4315637,-3.7055431,Casacamu,Calle de Rodríguez San Pedro 2,Madrid
restaurant,40.4286119,-3.7062696,El Retoñar,Calle de San Bernardo 87,Madrid
restaurant,40.4305398,-3.7056806,La Tapa,Calle de San Bernardo 97,Madrid
restaurant,40.4284212,-3.7063252,Espetinhos,Calle de San Bernardo 85,Madrid
restaurant,40.430347,-3.7053219,Tabernas Acuerdo 2,Calle de San Bernardo 98,Madrid
restaurant,40.4317825,-3.7112184,En Guay Si,Calle de Rodríguez San Pedro 34,Madrid
restaurant,40.4316465,-3.7113016,Sushi Bao,Calle de Rodríguez San Pedro 25,Madrid
restaurant,40.4334361,-3.7134029,Alcobilla,Calle de Guzmán el Bueno 37,Madrid
restaurant,40.4317019,-3.7132698,Bar Leonés,Calle de Guzmán el Bueno 12,Madrid
restaurant,40.4318614,-3.7129637,La Lorena,Calle de Rodríguez San Pedro 44,Madrid
restaurant,40.4318597,-3.7128413,London,Calle de Rodríguez San Pedro 44,Madrid
restaurant,40.4349117,-3.7130004,Membibre,Calle de Guzmán el Bueno 40,Madrid
restaurant,40.4352418,-3.7132869,Paulo,Calle de Guzmán el Bueno 57,Madrid
restaurant,40.4319923,-3.7132681,Prasad,Calle de Guzmán el Bueno 14,Madrid
restaurant,40.4365907,-3.7146761,Las Barricas,NO STREET 9999,Madrid
restaurant,40.4308372,-3.7090754,El Capricho,Calle de Vallehermoso 11,Madrid
restaurant,40.4313916,-3.7087284,Pizzerías Carlos,Calle de Vallehermoso 16,Madrid
restaurant,40.4350797,-3.710065,Barrera,Calle de Fernández de los Ríos 41,Madrid
restaurant,40.4326977,-3.7086007,De Pata Negra,Calle de Vallehermoso 26,Madrid
restaurant,40.4322054,-3.7089634,Tanino,Calle de Vallehermoso 25,Madrid
restaurant,40.4351301,-3.7104884,Tandoori hut,Calle de Fernández de los Ríos 43,Madrid
restaurant,40.4267987,-3.7083142,El Maño,Calle de la Palma 64,Madrid
restaurant,40.4261347,-3.7078851,La Gringa,Calle de San Vicente Ferrer 57,Madrid
restaurant,40.4167739,-3.6705859,Huerto y Caldero,Calle del Alcalde Sáinz de Baranda 57,Madrid
restaurant,40.5317065,-3.6472704,NO NAME,NO STREET 9999,Madrid
restaurant,40.4226573,-3.7037528,Amargo,Calle del Pez 2,Madrid
restaurant,40.422789,-3.7039478,Antorcha Café,Calle del Pez 4,Madrid
restaurant,40.422839,-3.7040217,El Pez Gordo,Calle del Pez 6,Madrid
restaurant,40.4224594,-3.7039475,Péscame Mucho,Corredera Baja de San Pablo 25,Madrid
restaurant,40.3810791,-3.7139298,El Rincón de Ruimi,NO STREET 9999,Madrid
restaurant,40.4825497,-3.3960288,Salones Oma,NO STREET 9999,Madrid
restaurant,40.4812722,-3.3963136,Tony Roma's,NO STREET 9999,Madrid
restaurant,40.4218158,-3.6999289,Tommy Mel's,Calle de Hortaleza 34,Madrid
restaurant,40.4224096,-3.7003196,La Tita,Calle de Pérez Galdós 4,Madrid
restaurant,40.423778,-3.701152,El Mandil,Calle de Colón 5,Madrid
restaurant,40.4176382,-3.6783439,Trenque Lauquen,Avenida de Menéndez Pelayo 41,Madrid
restaurant,40.4202088,-3.6792635,Can Bonet,Avenida de Menéndez Pelayo 15,Madrid
restaurant,40.4246501,-3.7129961,La Mordida,Calle de la Princesa 3,Madrid
restaurant,40.4249437,-3.7132192,Indalo,Calle de la Princesa 3,Madrid
restaurant,40.4253103,-3.7129761,Tapa Tapa,Plaza de los Cubos 9999,Madrid
restaurant,40.4253937,-3.7133451,Ginos,Calle de la Princesa 5,Madrid
restaurant,40.4258193,-3.7136633,El Cisne,Calle de Ventura Rodríguez 4,Madrid
restaurant,40.4253932,-3.7138709,Dantxari,Calle de Ventura Rodríguez 8,Madrid
restaurant,40.4104137,-3.710221,La Parrala,Calle Humilladero 5,Madrid
restaurant,40.4222395,-3.7042457,Clarita,Corredera Baja de San Pablo 19,Madrid
restaurant,40.4235996,-3.7052124,Gumbo,Calle del Pez 15,Madrid
restaurant,40.4236035,-3.7089558,Lamian,Plaza de los Mostenses 4,Madrid
restaurant,40.4268034,-3.7078217,La Palma 60,Calle de la Palma 60,Madrid
restaurant,40.4235559,-3.708731,Barbacoa,Plaza de los Mostenses 6,Madrid
restaurant,40.4234595,-3.7077063,Hoh's,Calle de Antonio Grilo 4,Madrid
restaurant,40.4239706,-3.7087862,Casa Federica,Calle de la Manzana 19,Madrid
restaurant,40.4235325,-3.7093555,Hot Pot,Plaza de los Mostenses 1,Madrid
restaurant,40.4235286,-3.7082912,Sabor Cantonés,Calle de Antonio Grilo 12,Madrid
restaurant,40.4251689,-3.7102139,Mughul,Calle de San Bernardino 10,Madrid
restaurant,40.4252351,-3.7106702,Con 2 Fogones,Calle de San Bernardino 9,Madrid
restaurant,40.4259866,-3.7120142,Aladino,Calle del Duque de Liria 2,Madrid
restaurant,40.4260925,-3.712408,María Bonita,Calle del Duque de Liria 9,Madrid
restaurant,40.4264017,-3.7125956,Küche,Calle de la Princesa 18,Madrid
restaurant,40.5337948,-3.6267266,VIPS,Calle de Anabel Segura 11,Madrid
restaurant,40.5306591,-3.6379895,Tony Roma's,NO STREET 9999,Madrid
restaurant,40.5302636,-3.6391375,VIPS,NO STREET 9999,Madrid
restaurant,40.4771291,-3.3928053,Foster's Hollywood,NO STREET 9999,Madrid
restaurant,40.414785,-3.7035258,Café & Tapas,Calle de Carretas 14,Madrid
restaurant,40.4140049,-3.7011129,Viet Nam,Calle de las Huertas 4,Madrid
restaurant,40.4131803,-3.6982035,La Biotika,Calle Amor de Dios 3,Madrid
restaurant,40.4230108,-3.7068224,Soup Bowls,Calle de Andrés Borrego 2,Madrid
restaurant,40.4632163,-3.6288617,Bocanova,Plaza de Andrés Jáuregui 18,Madrid
restaurant,40.4630986,-3.628863,Chang Jiang,NO STREET 9999,Madrid
restaurant,40.4447738,-3.7031985,La Gran Tasca,Calle de Santa Engracia 161,Madrid
restaurant,40.4266808,-3.7036303,Baztán,Calle de San Andrés 14,Madrid
restaurant,40.4273539,-3.7035205,Meridiano 100,Calle de San Andrés 26,Madrid
restaurant,40.3923721,-3.7084176,Las Rocas,NO STREET 9999,Madrid
restaurant,40.3924965,-3.708741,El Jardín,NO STREET 9999,Madrid
restaurant,40.4234243,-3.7049906,GROSSO - Neapolitano,Calle del Pez 11,Madrid
restaurant,40.4214426,-3.7061028,Kokoxaxa,Calle de Silva 18,Madrid
restaurant,40.3925011,-3.7083181,Las Rocas,NO STREET 9999,Madrid
restaurant,40.4012914,-3.7150846,Bar Pirámides,NO STREET 9999,Madrid
restaurant,40.4026876,-3.6902256,Soria,NO STREET 9999,Madrid
restaurant,40.308289,-3.7288888,Los pescaitos,Calle San Eugenio 12,Madrid
restaurant,40.4640265,-3.460508,Los Juncales,NO STREET 9999,Madrid
restaurant,40.4241657,-3.7094684,NO NAME,Calle de los Reyes 8,Madrid
restaurant,40.4187322,-3.7082032,El Pato Mudo,Costanilla de los Ángeles 8,Madrid
restaurant,40.41681,-3.7087404,Iris,Calle de las Fuentes 1,Madrid
restaurant,40.4169483,-3.7087607,La Mordida,Calle de las Fuentes 3,Madrid
restaurant,40.4173759,-3.7087076,Taquería Mi Ciudad,Calle de las Fuentes 11,Madrid
restaurant,40.416651,-3.7087203,Kuraya,Plaza de Herradores 7,Madrid
restaurant,40.4174275,-3.7078346,Marrakech,Calle de las Hileras 12,Madrid
restaurant,40.4228695,-3.7033818,Ceviche,Corredera Baja de San Pablo 37,Madrid
restaurant,40.4238489,-3.7012882,La Jauría,Calle de Colón 10,Madrid
restaurant,40.4237313,-3.7007507,Orio,Calle de Fuencarral 49,Madrid
restaurant,40.4228139,-3.6997945,Dionisos,Calle de Augusto Figueroa 8,Madrid
restaurant,40.4206267,-3.7077297,Larios Café,Calle de Silva 4,Madrid
restaurant,40.420575,-3.7079302,Tayta Chicken Grill & Wok,Calle de Silva 2,Madrid
restaurant,40.4217055,-3.7059064,Jota Batela,Calle de Silva 23,Madrid
restaurant,40.4194215,-3.707104,Cuando Salí de Cuba,Calle de la Ternera 4,Madrid
restaurant,40.4191439,-3.7065685,A Miña Gaita,Calle de las Navas de Tolosa 3,Madrid
restaurant,40.4191304,-3.7069475,La Chamana,Calle de las Navas de Tolosa 7,Madrid
restaurant,40.4191032,-3.7071367,Cornucopia,Calle de las Navas de Tolosa 9,Madrid
restaurant,40.4173248,-3.7060621,Taberna los 4 Robles,Plaza de Celenque 1,Madrid
restaurant,40.4194748,-3.7079939,Himalaya,Costanilla de los Ángeles 18,Madrid
restaurant,40.4172783,-3.7086063,La Excéntrica,Calle de las Fuentes 10,Madrid
restaurant,40.4139438,-3.7085134,Casa Paco,Plaza Puerta Cerrada 11,Madrid
restaurant,40.4155063,-3.7086445,Tapas de Sichuan,Cava de San Miguel 3,Madrid
restaurant,40.4209125,-3.7089606,Sandó,Calle de Isabel La Católica 2-4,Madrid
restaurant,40.4206521,-3.7114917,El Senador,Plaza de la Marina Española 2,Madrid
restaurant,40.4218125,-3.7116158,Mesón Del Bacalao,Calle del Reloj 16,Madrid
restaurant,40.4199972,-3.7105112,La Bola,Calle de la Bola 5,Madrid
restaurant,40.4115906,-3.7119728,María La Lia,Calle de Don Pedro 6,Madrid
restaurant,40.4121032,-3.7133507,Rasputín,Calle Yeseros 9999,Madrid
restaurant,40.4127062,-3.7138985,Francisca,Calle de Bailén 14,Madrid
restaurant,40.4117008,-3.71403,NO NAME,Calle de Bailén 20,Madrid
restaurant,40.4135782,-3.7102688,El Sainete,Calle de Segovia 8,Madrid
restaurant,40.4164576,-3.710931,La Gastroteca de Santiago,Plaza de Santiago 1,Madrid
restaurant,40.4177107,-3.711468,Café de Oriente,Plaza de Oriente 2,Madrid
restaurant,40.4185922,-3.7112036,La Lonja/La Mar/Raw Bar,Plaza de Oriente 6,Madrid
restaurant,40.4248581,-3.7134354,Krüger,Calle de la Princesa 5,Madrid
restaurant,40.447205,-3.7098514,Bar Manolo,Avenida de la Reina Victoria 30,Madrid
restaurant,40.4240853,-3.7091158,Hero,Calle del Álamo 7,Madrid
restaurant,40.4149607,-3.7083443,Mesón La Mazmorra,Calle Cava de San Miguel 6,Madrid
restaurant,40.4103465,-3.6977557,La Caleta,Calle de Santa Isabel 38,Madrid
restaurant,40.4108793,-3.6990942,La Caleta,Calle de los Tres Peces 9999,Madrid
restaurant,40.4254557,-3.7037472,Casa 28,Calle del Espíritu Santo 28,Madrid
restaurant,40.4265428,-3.7037728,La Divina,Calle de San Andrés 11,Madrid
restaurant,40.4273585,-3.7039189,Cabreira,Calle de Ruiz 2,Madrid
restaurant,40.4275516,-3.7038664,La Fragua de Sebín,Calle del Divino Pastor 21,Madrid
restaurant,40.4277183,-3.7040149,El Pico,Calle del Divino Pastor 9999,Madrid
restaurant,40.4287917,-3.7043246,La Musa,Calle de Manuela Malasaña 18,Madrid
restaurant,40.4286313,-3.7038617,La Tía Manuela,Calle de Manuela Malasaña 17,Madrid
restaurant,40.4867641,-3.7030846,Verdil,Calle de Alfredo Marqueríe 43,Madrid
restaurant,40.4876894,-3.6645676,Lunch & Dinner,Avenida de Manoteras 46,Madrid
restaurant,40.4228535,-3.7030917,La Pescadería,Calle de la Ballesta 32,Madrid
restaurant,40.4226994,-3.6994143,Piccolo Andrea,Calle de Hortaleza 43,Madrid
restaurant,40.4231855,-3.6989167,Wok 4 You,Calle de Hortaleza 72,Madrid
restaurant,40.4235344,-3.7001703,Pecado Carnal,Calle de Hernán Cortés 7,Madrid
restaurant,40.4234289,-3.6999874,La Hummusería,Calle de Hernán Cortés 8,Madrid
restaurant,40.4454029,-3.7141976,Baden,NO STREET 9999,Madrid
restaurant,40.4144215,-3.7005981,La ChulAna,Plaza de Santa Ana 8,Madrid
